{
"type": "FeatureCollection",
"name": "stations",
"crs": { "type": "name", "properties": { "name": "urn:ogc:def:crs:OGC:1.3:CRS84" } },
"features": [
{ "type": "Feature", "properties": { "start_station_id": "8738_01", "start_station_name": "Goulden Ave & Bedford Park Blvd", "start_lat": 40.87387, "start_lng": -73.89533 }, "geometry": { "type": "Point", "coordinates": [ -73.89533, 40.87387 ] } },
{ "type": "Feature", "properties": { "start_station_id": "6304_04", "start_station_name": "98 St & 41 Ave", "start_lat": 40.74773, "start_lng": -73.86649 }, "geometry": { "type": "Point", "coordinates": [ -73.86649, 40.74773 ] } },
{ "type": "Feature", "properties": { "start_station_id": "4386_05", "start_station_name": "Fulton St & Clermont Ave", "start_lat": 40.68415748, "start_lng": -73.96922273 }, "geometry": { "type": "Point", "coordinates": [ -73.96922273, 40.68415748 ] } },
{ "type": "Feature", "properties": { "start_station_id": "7032_06", "start_station_name": "Hazen St & 20 Ave", "start_lat": 40.772092, "start_lng": -73.895166 }, "geometry": { "type": "Point", "coordinates": [ -73.895166, 40.772092 ] } },
{ "type": "Feature", "properties": { "start_station_id": "4446_05", "start_station_name": "Dean St & Hoyt St", "start_lat": 40.6864442, "start_lng": -73.98759104 }, "geometry": { "type": "Point", "coordinates": [ -73.98759104, 40.6864442 ] } },
{ "type": "Feature", "properties": { "start_station_id": "3426_02", "start_station_name": "Prospect Ave & Vanderbilt St", "start_lat": 40.653368, "start_lng": -73.976291 }, "geometry": { "type": "Point", "coordinates": [ -73.976291, 40.653368 ] } },
{ "type": "Feature", "properties": { "start_station_id": "7100_07", "start_station_name": "5 Ave & E 72 St", "start_lat": 40.77282817, "start_lng": -73.96685276 }, "geometry": { "type": "Point", "coordinates": [ -73.96685276, 40.77282817 ] } },
{ "type": "Feature", "properties": { "start_station_id": "7354_01", "start_station_name": "Central Park West & W 85 St", "start_lat": 40.78476, "start_lng": -73.969862 }, "geometry": { "type": "Point", "coordinates": [ -73.969862, 40.78476 ] } },
{ "type": "Feature", "properties": { "start_station_id": "5989_02", "start_station_name": "W 15 St & 6 Ave", "start_lat": 40.738046142482766, "start_lng": -73.996429592370987 }, "geometry": { "type": "Point", "coordinates": [ -73.996429592370987, 40.738046142482766 ] } },
{ "type": "Feature", "properties": { "start_station_id": "5896_01", "start_station_name": "E 17 St & 2 Ave", "start_lat": 40.734311662765748, "start_lng": -73.983725309371948 }, "geometry": { "type": "Point", "coordinates": [ -73.983725309371948, 40.734311662765748 ] } },
{ "type": "Feature", "properties": { "start_station_id": "7123_04", "start_station_name": "W 64 St & Thelonious Monk Circle", "start_lat": 40.77515953434235, "start_lng": -73.989186957478523 }, "geometry": { "type": "Point", "coordinates": [ -73.989186957478523, 40.77515953434235 ] } },
{ "type": "Feature", "properties": { "start_station_id": "6064_08", "start_station_name": "W 18 St & 6 Ave", "start_lat": 40.73971301, "start_lng": -73.99456405 }, "geometry": { "type": "Point", "coordinates": [ -73.99456405, 40.73971301 ] } },
{ "type": "Feature", "properties": { "start_station_id": "5730_08", "start_station_name": "Greenwich St & W Houston St", "start_lat": 40.728846, "start_lng": -74.008591 }, "geometry": { "type": "Point", "coordinates": [ -74.008591, 40.728846 ] } },
{ "type": "Feature", "properties": { "start_station_id": "3919_07", "start_station_name": "Eastern Pkwy & Franklin Ave (NE Corner)", "start_lat": 40.6707767, "start_lng": -73.9576801 }, "geometry": { "type": "Point", "coordinates": [ -73.9576801, 40.6707767 ] } },
{ "type": "Feature", "properties": { "start_station_id": "6190_08", "start_station_name": "9 Ave & W 18 St", "start_lat": 40.74317449, "start_lng": -74.00366443 }, "geometry": { "type": "Point", "coordinates": [ -74.00366443, 40.74317449 ] } },
{ "type": "Feature", "properties": { "start_station_id": "6847_02", "start_station_name": "Broadway & W 56 St", "start_lat": 40.7652654, "start_lng": -73.98192338 }, "geometry": { "type": "Point", "coordinates": [ -73.98192338, 40.7652654 ] } },
{ "type": "Feature", "properties": { "start_station_id": "5001_08", "start_station_name": "Little West St & 1 Pl", "start_lat": 40.70569254, "start_lng": -74.01677685 }, "geometry": { "type": "Point", "coordinates": [ -74.01677685, 40.70569254 ] } },
{ "type": "Feature", "properties": { "start_station_id": "6517_08", "start_station_name": "W 42 St & 6 Ave", "start_lat": 40.75492, "start_lng": -73.98455 }, "geometry": { "type": "Point", "coordinates": [ -73.98455, 40.75492 ] } },
{ "type": "Feature", "properties": { "start_station_id": "5977_01", "start_station_name": "McGuinness Blvd & Eagle St", "start_lat": 40.73555, "start_lng": -73.95284 }, "geometry": { "type": "Point", "coordinates": [ -73.95284, 40.73555 ] } },
{ "type": "Feature", "properties": { "start_station_id": "7745_07", "start_station_name": "W 120 St & Claremont Ave", "start_lat": 40.8109494, "start_lng": -73.9634 }, "geometry": { "type": "Point", "coordinates": [ -73.9634, 40.8109494 ] } },
{ "type": "Feature", "properties": { "start_station_id": "5411_07", "start_station_name": "Union Ave & N 12 St", "start_lat": 40.71924, "start_lng": -73.95242 }, "geometry": { "type": "Point", "coordinates": [ -73.95242, 40.71924 ] } },
{ "type": "Feature", "properties": { "start_station_id": "5593_04", "start_station_name": "E 4 St & 2 Ave", "start_lat": 40.7262807, "start_lng": -73.98978041 }, "geometry": { "type": "Point", "coordinates": [ -73.98978041, 40.7262807 ] } },
{ "type": "Feature", "properties": { "start_station_id": "3492_04", "start_station_name": "34 St & 4 Ave", "start_lat": 40.655278, "start_lng": -74.003101 }, "geometry": { "type": "Point", "coordinates": [ -74.003101, 40.655278 ] } },
{ "type": "Feature", "properties": { "start_station_id": "4116_09", "start_station_name": "Washington Ave & Park Pl", "start_lat": 40.675832, "start_lng": -73.963308 }, "geometry": { "type": "Point", "coordinates": [ -73.963308, 40.675832 ] } },
{ "type": "Feature", "properties": { "start_station_id": "4354_05", "start_station_name": "S Portland Ave & Hanson Pl", "start_lat": 40.68539567, "start_lng": -73.97431458 }, "geometry": { "type": "Point", "coordinates": [ -73.97431458, 40.68539567 ] } },
{ "type": "Feature", "properties": { "start_station_id": "5300_05", "start_station_name": "Metropolitan Ave & Meeker Ave", "start_lat": 40.71413311, "start_lng": -73.95234386 }, "geometry": { "type": "Point", "coordinates": [ -73.95234386, 40.71413311 ] } },
{ "type": "Feature", "properties": { "start_station_id": "5059_02", "start_station_name": "McKibbin St & Bogart St", "start_lat": 40.706237, "start_lng": -73.933871 }, "geometry": { "type": "Point", "coordinates": [ -73.933871, 40.706237 ] } },
{ "type": "Feature", "properties": { "start_station_id": "5178_06", "start_station_name": "Graham Ave & Grand St", "start_lat": 40.711863, "start_lng": -73.944024 }, "geometry": { "type": "Point", "coordinates": [ -73.944024, 40.711863 ] } },
{ "type": "Feature", "properties": { "start_station_id": "6876_04", "start_station_name": "Central Park S & 6 Ave", "start_lat": 40.76590936, "start_lng": -73.97634151 }, "geometry": { "type": "Point", "coordinates": [ -73.97634151, 40.76590936 ] } },
{ "type": "Feature", "properties": { "start_station_id": "5453_01", "start_station_name": "Rivington St & Chrystie St", "start_lat": 40.72110063, "start_lng": -73.9919254 }, "geometry": { "type": "Point", "coordinates": [ -73.9919254, 40.72110063 ] } },
{ "type": "Feature", "properties": { "start_station_id": "6865_03", "start_station_name": "21 St & 31 Dr", "start_lat": 40.7659, "start_lng": -73.930819 }, "geometry": { "type": "Point", "coordinates": [ -73.930819, 40.7659 ] } },
{ "type": "Feature", "properties": { "start_station_id": "4169_04", "start_station_name": "Pioneer St & Van Brunt St", "start_lat": 40.679043, "start_lng": -74.011169 }, "geometry": { "type": "Point", "coordinates": [ -74.011169, 40.679043 ] } },
{ "type": "Feature", "properties": { "start_station_id": "6492_08", "start_station_name": "9 Ave & W 33 St", "start_lat": 40.752568, "start_lng": -73.996765 }, "geometry": { "type": "Point", "coordinates": [ -73.996765, 40.752568 ] } },
{ "type": "Feature", "properties": { "start_station_id": "4632_10", "start_station_name": "Central Ave & Woodbine St", "start_lat": 40.69296, "start_lng": -73.91605 }, "geometry": { "type": "Point", "coordinates": [ -73.91605, 40.69296 ] } },
{ "type": "Feature", "properties": { "start_station_id": "5379_10", "start_station_name": "N 6 St & Bedford Ave", "start_lat": 40.71745169, "start_lng": -73.95850939 }, "geometry": { "type": "Point", "coordinates": [ -73.95850939, 40.71745169 ] } },
{ "type": "Feature", "properties": { "start_station_id": "4625_01", "start_station_name": "Pulaski St & Throop Ave", "start_lat": 40.693115, "start_lng": -73.943149 }, "geometry": { "type": "Point", "coordinates": [ -73.943149, 40.693115 ] } },
{ "type": "Feature", "properties": { "start_station_id": "5743_02", "start_station_name": "Calyer St & Jewel St", "start_lat": 40.72984, "start_lng": -73.94839 }, "geometry": { "type": "Point", "coordinates": [ -73.94839, 40.72984 ] } },
{ "type": "Feature", "properties": { "start_station_id": "5134_09", "start_station_name": "Broadway & Kent Ave", "start_lat": 40.710888, "start_lng": -73.968329 }, "geometry": { "type": "Point", "coordinates": [ -73.968329, 40.710888 ] } },
{ "type": "Feature", "properties": { "start_station_id": "6795_01", "start_station_name": "W 46 St & 11 Ave", "start_lat": 40.76341379, "start_lng": -73.99667444000001 }, "geometry": { "type": "Point", "coordinates": [ -73.99667444, 40.76341379 ] } },
{ "type": "Feature", "properties": { "start_station_id": "6215_04", "start_station_name": "W 25 St & 6 Ave", "start_lat": 40.74395411, "start_lng": -73.99144871 }, "geometry": { "type": "Point", "coordinates": [ -73.99144871, 40.74395411 ] } },
{ "type": "Feature", "properties": { "start_station_id": "8021_11", "start_station_name": "Grand Concourse & E 161 St", "start_lat": 40.827133804235558, "start_lng": -73.922735899686799 }, "geometry": { "type": "Point", "coordinates": [ -73.922735899686799, 40.827133804235558 ] } },
{ "type": "Feature", "properties": { "start_station_id": "4199_13", "start_station_name": "Carlton Ave & St Marks Ave", "start_lat": 40.679118560821649, "start_lng": -73.971762657165527 }, "geometry": { "type": "Point", "coordinates": [ -73.971762657165527, 40.679118560821649 ] } },
{ "type": "Feature", "properties": { "start_station_id": "3771_06", "start_station_name": "14 St & 5 Ave", "start_lat": 40.666287, "start_lng": -73.98895053 }, "geometry": { "type": "Point", "coordinates": [ -73.98895053, 40.666287 ] } },
{ "type": "Feature", "properties": { "start_station_id": "4962_01", "start_station_name": "Broadway & Battery Pl", "start_lat": 40.70463334, "start_lng": -74.01361706 }, "geometry": { "type": "Point", "coordinates": [ -74.01361706, 40.70463334 ] } },
{ "type": "Feature", "properties": { "start_station_id": "5593_01", "start_station_name": "E 1 St & 1 Ave", "start_lat": 40.723355979607959, "start_lng": -73.988649845123291 }, "geometry": { "type": "Point", "coordinates": [ -73.988649845123291, 40.723355979607959 ] } },
{ "type": "Feature", "properties": { "start_station_id": "4522_07", "start_station_name": "State St & Smith St", "start_lat": 40.68917, "start_lng": -73.9886 }, "geometry": { "type": "Point", "coordinates": [ -73.9886, 40.68917 ] } },
{ "type": "Feature", "properties": { "start_station_id": "6039_06", "start_station_name": "Washington St & Gansevoort St", "start_lat": 40.739323, "start_lng": -74.008119 }, "geometry": { "type": "Point", "coordinates": [ -74.008119, 40.739323 ] } },
{ "type": "Feature", "properties": { "start_station_id": "6248_08", "start_station_name": "5 Ave & E 30 St", "start_lat": 40.7459849, "start_lng": -73.98629487 }, "geometry": { "type": "Point", "coordinates": [ -73.98629487, 40.7459849 ] } },
{ "type": "Feature", "properties": { "start_station_id": "5980_10", "start_station_name": "E 17 St & Broadway", "start_lat": 40.737006, "start_lng": -73.990134 }, "geometry": { "type": "Point", "coordinates": [ -73.990134, 40.737006 ] } },
{ "type": "Feature", "properties": { "start_station_id": "5184_08", "start_station_name": "West St & Liberty St", "start_lat": 40.711444, "start_lng": -74.014847 }, "geometry": { "type": "Point", "coordinates": [ -74.014847, 40.711444 ] } },
{ "type": "Feature", "properties": { "start_station_id": "5400_05", "start_station_name": "Harrison St & Hudson St", "start_lat": 40.71870987, "start_lng": -74.0090009 }, "geometry": { "type": "Point", "coordinates": [ -74.0090009, 40.71870987 ] } },
{ "type": "Feature", "properties": { "start_station_id": "5004_02", "start_station_name": "Boerum St & Broadway", "start_lat": 40.70538077, "start_lng": -73.94976519 }, "geometry": { "type": "Point", "coordinates": [ -73.94976519, 40.70538077 ] } },
{ "type": "Feature", "properties": { "start_station_id": "5687_04", "start_station_name": "MacDougal St & Prince St", "start_lat": 40.72710258, "start_lng": -74.00297088000001 }, "geometry": { "type": "Point", "coordinates": [ -74.00297088, 40.72710258 ] } },
{ "type": "Feature", "properties": { "start_station_id": "5388_01", "start_station_name": "Kent Ave & Grand St", "start_lat": 40.716425, "start_lng": -73.96594 }, "geometry": { "type": "Point", "coordinates": [ -73.96594, 40.716425 ] } },
{ "type": "Feature", "properties": { "start_station_id": "4963_13", "start_station_name": "Menahan St & Seneca Ave", "start_lat": 40.70461, "start_lng": -73.91054 }, "geometry": { "type": "Point", "coordinates": [ -73.91054, 40.70461 ] } },
{ "type": "Feature", "properties": { "start_station_id": "5721_07", "start_station_name": "Thompson St & Bleecker St", "start_lat": 40.728400594508287, "start_lng": -73.999687805771828 }, "geometry": { "type": "Point", "coordinates": [ -73.999687805771828, 40.728400594508287 ] } },
{ "type": "Feature", "properties": { "start_station_id": "7152_10", "start_station_name": "24 Ave & 26 St", "start_lat": 40.774591, "start_lng": -73.918544 }, "geometry": { "type": "Point", "coordinates": [ -73.918544, 40.774591 ] } },
{ "type": "Feature", "properties": { "start_station_id": "3834_10", "start_station_name": "6 St & 7 Ave", "start_lat": 40.6686627, "start_lng": -73.97988067 }, "geometry": { "type": "Point", "coordinates": [ -73.97988067, 40.6686627 ] } },
{ "type": "Feature", "properties": { "start_station_id": "4138_04", "start_station_name": "Thomas S. Boyland St & Fulton St", "start_lat": 40.67854, "start_lng": -73.91367 }, "geometry": { "type": "Point", "coordinates": [ -73.91367, 40.67854 ] } },
{ "type": "Feature", "properties": { "start_station_id": "4307_13", "start_station_name": "President St & Henry St", "start_lat": 40.6828003, "start_lng": -73.99990419 }, "geometry": { "type": "Point", "coordinates": [ -73.99990419, 40.6828003 ] } },
{ "type": "Feature", "properties": { "start_station_id": "4422_04", "start_station_name": "Columbia St & Degraw St", "start_lat": 40.6859296, "start_lng": -74.00242364 }, "geometry": { "type": "Point", "coordinates": [ -74.00242364, 40.6859296 ] } },
{ "type": "Feature", "properties": { "start_station_id": "7188_13", "start_station_name": "Madison Ave & E 82 St", "start_lat": 40.7781314, "start_lng": -73.96069399 }, "geometry": { "type": "Point", "coordinates": [ -73.96069399, 40.7781314 ] } },
{ "type": "Feature", "properties": { "start_station_id": "4494_04", "start_station_name": "Lafayette Ave & St James Pl", "start_lat": 40.68851534, "start_lng": -73.9647628 }, "geometry": { "type": "Point", "coordinates": [ -73.9647628, 40.68851534 ] } },
{ "type": "Feature", "properties": { "start_station_id": "6563_12", "start_station_name": "35 Ave & 37 St", "start_lat": 40.7557327, "start_lng": -73.9236611 }, "geometry": { "type": "Point", "coordinates": [ -73.9236611, 40.7557327 ] } },
{ "type": "Feature", "properties": { "start_station_id": "6750_16", "start_station_name": "35 St & Broadway", "start_lat": 40.760339, "start_lng": -73.9222427 }, "geometry": { "type": "Point", "coordinates": [ -73.9222427, 40.760339 ] } },
{ "type": "Feature", "properties": { "start_station_id": "6134_13", "start_station_name": "44 St & Greenpoint Ave", "start_lat": 40.741119944681465, "start_lng": -73.921036720275879 }, "geometry": { "type": "Point", "coordinates": [ -73.921036720275879, 40.741119944681465 ] } },
{ "type": "Feature", "properties": { "start_station_id": "6839_04", "start_station_name": "E 58 St & Madison Ave", "start_lat": 40.763025942805193, "start_lng": -73.972095251083374 }, "geometry": { "type": "Point", "coordinates": [ -73.972095251083374, 40.763025942805193 ] } },
{ "type": "Feature", "properties": { "start_station_id": "3914_02", "start_station_name": "7 St & 5 Ave", "start_lat": 40.6704922, "start_lng": -73.98541675 }, "geometry": { "type": "Point", "coordinates": [ -73.98541675, 40.6704922 ] } },
{ "type": "Feature", "properties": { "start_station_id": "6991_12", "start_station_name": "E 75 St & 3 Ave", "start_lat": 40.77112927, "start_lng": -73.95772297000001 }, "geometry": { "type": "Point", "coordinates": [ -73.95772297, 40.77112927 ] } },
{ "type": "Feature", "properties": { "start_station_id": "4832_07", "start_station_name": "Central Ave & Melrose St", "start_lat": 40.70112, "start_lng": -73.93039 }, "geometry": { "type": "Point", "coordinates": [ -73.93039, 40.70112 ] } },
{ "type": "Feature", "properties": { "start_station_id": "5291_05", "start_station_name": "Graham Ave & Conselyea St", "start_lat": 40.715143, "start_lng": -73.944507 }, "geometry": { "type": "Point", "coordinates": [ -73.944507, 40.715143 ] } },
{ "type": "Feature", "properties": { "start_station_id": "6711_13", "start_station_name": "Steinway St & Broadway", "start_lat": 40.759057954185863, "start_lng": -73.918975442647934 }, "geometry": { "type": "Point", "coordinates": [ -73.918975442647934, 40.759057954185863 ] } },
{ "type": "Feature", "properties": { "start_station_id": "4965_01", "start_station_name": "Lorimer St & Broadway", "start_lat": 40.70411791, "start_lng": -73.94818595 }, "geometry": { "type": "Point", "coordinates": [ -73.94818595, 40.70411791 ] } },
{ "type": "Feature", "properties": { "start_station_id": "7382_04", "start_station_name": "W 84 St & Columbus Ave", "start_lat": 40.78499979, "start_lng": -73.97283406 }, "geometry": { "type": "Point", "coordinates": [ -73.97283406, 40.78499979 ] } },
{ "type": "Feature", "properties": { "start_station_id": "6809_09", "start_station_name": "W 55 St & 6 Ave", "start_lat": 40.763189, "start_lng": -73.978434 }, "geometry": { "type": "Point", "coordinates": [ -73.978434, 40.763189 ] } },
{ "type": "Feature", "properties": { "start_station_id": "7026_08", "start_station_name": "Newtown Ave & 23 St", "start_lat": 40.7713615, "start_lng": -73.9246145 }, "geometry": { "type": "Point", "coordinates": [ -73.9246145, 40.7713615 ] } },
{ "type": "Feature", "properties": { "start_station_id": "4510_04", "start_station_name": "Greene Ave & Throop Ave", "start_lat": 40.6894932, "start_lng": -73.942061 }, "geometry": { "type": "Point", "coordinates": [ -73.942061, 40.6894932 ] } },
{ "type": "Feature", "properties": { "start_station_id": "4354_07", "start_station_name": "Atlantic Ave & Fort Greene Pl", "start_lat": 40.68382604, "start_lng": -73.97632328 }, "geometry": { "type": "Point", "coordinates": [ -73.97632328, 40.68382604 ] } },
{ "type": "Feature", "properties": { "start_station_id": "6723_10", "start_station_name": "E 58 St & 1 Ave (NW Corner)", "start_lat": 40.759125, "start_lng": -73.962658 }, "geometry": { "type": "Point", "coordinates": [ -73.962658, 40.759125 ] } },
{ "type": "Feature", "properties": { "start_station_id": "4089_01", "start_station_name": "Bergen St & Kingston Ave", "start_lat": 40.6756, "start_lng": -73.9415 }, "geometry": { "type": "Point", "coordinates": [ -73.9415, 40.6756 ] } },
{ "type": "Feature", "properties": { "start_station_id": "6382_05", "start_station_name": "W 26 St & 10 Ave", "start_lat": 40.749717753, "start_lng": -74.002950346000006 }, "geometry": { "type": "Point", "coordinates": [ -74.002950346, 40.749717753 ] } },
{ "type": "Feature", "properties": { "start_station_id": "5288_12", "start_station_name": "Murray St & Greenwich St", "start_lat": 40.714851505262509, "start_lng": -74.011223316192627 }, "geometry": { "type": "Point", "coordinates": [ -74.011223316192627, 40.714851505262509 ] } },
{ "type": "Feature", "properties": { "start_station_id": "5445_02", "start_station_name": "Suffolk St & Stanton St", "start_lat": 40.72066442, "start_lng": -73.98517977 }, "geometry": { "type": "Point", "coordinates": [ -73.98517977, 40.72066442 ] } },
{ "type": "Feature", "properties": { "start_station_id": "6756_01", "start_station_name": "W 43 St & 10 Ave", "start_lat": 40.76009437, "start_lng": -73.99461843 }, "geometry": { "type": "Point", "coordinates": [ -73.99461843, 40.76009437 ] } },
{ "type": "Feature", "properties": { "start_station_id": "7253_04", "start_station_name": "Central Park West & W 76 St", "start_lat": 40.77896784, "start_lng": -73.97374737 }, "geometry": { "type": "Point", "coordinates": [ -73.97374737, 40.77896784 ] } },
{ "type": "Feature", "properties": { "start_station_id": "8356_04", "start_station_name": "Anthony Ave & E Tremont Ave", "start_lat": 40.848793, "start_lng": -73.903178 }, "geometry": { "type": "Point", "coordinates": [ -73.903178, 40.848793 ] } },
{ "type": "Feature", "properties": { "start_station_id": "7992_04", "start_station_name": "Bradhurst Ave & W 148 St", "start_lat": 40.825125, "start_lng": -73.941616 }, "geometry": { "type": "Point", "coordinates": [ -73.941616, 40.825125 ] } },
{ "type": "Feature", "properties": { "start_station_id": "4727_06", "start_station_name": "Summerfield St & Cypress Ave", "start_lat": 40.69662, "start_lng": -73.90056 }, "geometry": { "type": "Point", "coordinates": [ -73.90056, 40.69662 ] } },
{ "type": "Feature", "properties": { "start_station_id": "4620_02", "start_station_name": "Adelphi St & Myrtle Ave", "start_lat": 40.69308257, "start_lng": -73.97178913 }, "geometry": { "type": "Point", "coordinates": [ -73.97178913, 40.69308257 ] } },
{ "type": "Feature", "properties": { "start_station_id": "3850_03", "start_station_name": "3 Ave & 14 St", "start_lat": 40.6685455, "start_lng": -73.99333264000001 }, "geometry": { "type": "Point", "coordinates": [ -73.99333264, 40.6685455 ] } },
{ "type": "Feature", "properties": { "start_station_id": "6137_04", "start_station_name": "5 St & 51 Ave", "start_lat": 40.7423737, "start_lng": -73.9566 }, "geometry": { "type": "Point", "coordinates": [ -73.9566, 40.7423737 ] } },
{ "type": "Feature", "properties": { "start_station_id": "6617_09", "start_station_name": "E 53 St & Lexington Ave", "start_lat": 40.75828065, "start_lng": -73.97069431 }, "geometry": { "type": "Point", "coordinates": [ -73.97069431, 40.75828065 ] } },
{ "type": "Feature", "properties": { "start_station_id": "3865_05", "start_station_name": "3 St & Prospect Park West", "start_lat": 40.668132, "start_lng": -73.97363831 }, "geometry": { "type": "Point", "coordinates": [ -73.97363831, 40.668132 ] } },
{ "type": "Feature", "properties": { "start_station_id": "3420_01", "start_station_name": "36 St & 4 Ave", "start_lat": 40.654144, "start_lng": -74.00422 }, "geometry": { "type": "Point", "coordinates": [ -74.00422, 40.654144 ] } },
{ "type": "Feature", "properties": { "start_station_id": "7161_08", "start_station_name": "5 Ave & E 78 St", "start_lat": 40.776321421822708, "start_lng": -73.964273929595947 }, "geometry": { "type": "Point", "coordinates": [ -73.964273929595947, 40.776321421822708 ] } },
{ "type": "Feature", "properties": { "start_station_id": "4546_06", "start_station_name": "DeKalb Ave & S Portland Ave", "start_lat": 40.689670185522523, "start_lng": -73.97527355121376 }, "geometry": { "type": "Point", "coordinates": [ -73.97527355121376, 40.689670185522523 ] } },
{ "type": "Feature", "properties": { "start_station_id": "7634_01", "start_station_name": "W 106 St & Amsterdam Ave", "start_lat": 40.8008363, "start_lng": -73.966449247200003 }, "geometry": { "type": "Point", "coordinates": [ -73.966449247200003, 40.8008363 ] } },
{ "type": "Feature", "properties": { "start_station_id": "4255_05", "start_station_name": "Hancock St & Bedford Ave", "start_lat": 40.68216564, "start_lng": -73.95399026 }, "geometry": { "type": "Point", "coordinates": [ -73.95399026, 40.68216564 ] } },
{ "type": "Feature", "properties": { "start_station_id": "4450_06", "start_station_name": "Putnam Ave & Ralph Ave", "start_lat": 40.68705, "start_lng": -73.92338 }, "geometry": { "type": "Point", "coordinates": [ -73.92338, 40.68705 ] } },
{ "type": "Feature", "properties": { "start_station_id": "6441_06", "start_station_name": "W 37 St & Broadway", "start_lat": 40.752270938374089, "start_lng": -73.987705707550049 }, "geometry": { "type": "Point", "coordinates": [ -73.987705707550049, 40.752270938374089 ] } },
{ "type": "Feature", "properties": { "start_station_id": "5453_05", "start_station_name": "Forsyth St & Broome St", "start_lat": 40.71893904, "start_lng": -73.99266288 }, "geometry": { "type": "Point", "coordinates": [ -73.99266288, 40.71893904 ] } },
{ "type": "Feature", "properties": { "start_station_id": "6645_06", "start_station_name": "32 Ave & 75 St", "start_lat": 40.75704, "start_lng": -73.8924 }, "geometry": { "type": "Point", "coordinates": [ -73.8924, 40.75704 ] } },
{ "type": "Feature", "properties": { "start_station_id": "6700_14", "start_station_name": "W 51 St & Rockefeller Plaza", "start_lat": 40.75973805251143, "start_lng": -73.978116139769554 }, "geometry": { "type": "Point", "coordinates": [ -73.978116139769554, 40.75973805251143 ] } },
{ "type": "Feature", "properties": { "start_station_id": "5501_06", "start_station_name": "Fresh Pond Rd & Flushing Ave", "start_lat": 40.72155, "start_lng": -73.90295 }, "geometry": { "type": "Point", "coordinates": [ -73.90295, 40.72155 ] } },
{ "type": "Feature", "properties": { "start_station_id": "5476_03", "start_station_name": "E 2 St & Ave C", "start_lat": 40.7208736, "start_lng": -73.98085795 }, "geometry": { "type": "Point", "coordinates": [ -73.98085795, 40.7208736 ] } },
{ "type": "Feature", "properties": { "start_station_id": "8133_08", "start_station_name": "Boston Rd & Prospect Ave", "start_lat": 40.833246, "start_lng": -73.896599 }, "geometry": { "type": "Point", "coordinates": [ -73.896599, 40.833246 ] } },
{ "type": "Feature", "properties": { "start_station_id": "4278_03", "start_station_name": "Marcus Garvey Blvd & Macon St", "start_lat": 40.682601, "start_lng": -73.938037 }, "geometry": { "type": "Point", "coordinates": [ -73.938037, 40.682601 ] } },
{ "type": "Feature", "properties": { "start_station_id": "7204_08", "start_station_name": "E 89 St & York Ave", "start_lat": 40.7779453, "start_lng": -73.946041 }, "geometry": { "type": "Point", "coordinates": [ -73.946041, 40.7779453 ] } },
{ "type": "Feature", "properties": { "start_station_id": "6691_11", "start_station_name": "E 56 St & 3 Ave", "start_lat": 40.75934501, "start_lng": -73.96759673 }, "geometry": { "type": "Point", "coordinates": [ -73.96759673, 40.75934501 ] } },
{ "type": "Feature", "properties": { "start_station_id": "6364_10", "start_station_name": "6 Ave & W 34 St", "start_lat": 40.74964, "start_lng": -73.98805 }, "geometry": { "type": "Point", "coordinates": [ -73.98805, 40.74964 ] } },
{ "type": "Feature", "properties": { "start_station_id": "4663_06", "start_station_name": "Putnam Ave & Knickerbocker Ave", "start_lat": 40.69545, "start_lng": -73.91164 }, "geometry": { "type": "Point", "coordinates": [ -73.91164, 40.69545 ] } },
{ "type": "Feature", "properties": { "start_station_id": "7338_02", "start_station_name": "2 Ave & E 96 St", "start_lat": 40.7839636, "start_lng": -73.9471673 }, "geometry": { "type": "Point", "coordinates": [ -73.9471673, 40.7839636 ] } },
{ "type": "Feature", "properties": { "start_station_id": "5492_05", "start_station_name": "Cleveland Pl & Spring St", "start_lat": 40.722103786686034, "start_lng": -73.997249007225037 }, "geometry": { "type": "Point", "coordinates": [ -73.997249007225037, 40.722103786686034 ] } },
{ "type": "Feature", "properties": { "start_station_id": "7680_03", "start_station_name": "Cathedral Pkwy & Broadway", "start_lat": 40.804213, "start_lng": -73.96699104 }, "geometry": { "type": "Point", "coordinates": [ -73.96699104, 40.804213 ] } },
{ "type": "Feature", "properties": { "start_station_id": "5453_06", "start_station_name": "Kenmare St & Elizabeth St", "start_lat": 40.72054, "start_lng": -73.9949 }, "geometry": { "type": "Point", "coordinates": [ -73.9949, 40.72054 ] } },
{ "type": "Feature", "properties": { "start_station_id": "7652_04", "start_station_name": "Lexington Ave & E 120 St", "start_lat": 40.8013066, "start_lng": -73.9398167 }, "geometry": { "type": "Point", "coordinates": [ -73.9398167, 40.8013066 ] } },
{ "type": "Feature", "properties": { "start_station_id": "4293_05", "start_station_name": "Chauncey St & Howard Ave", "start_lat": 40.68158, "start_lng": -73.91959 }, "geometry": { "type": "Point", "coordinates": [ -73.91959, 40.68158 ] } },
{ "type": "Feature", "properties": { "start_station_id": "4074_14", "start_station_name": "Classon Ave & St Marks Ave", "start_lat": 40.676513, "start_lng": -73.959431 }, "geometry": { "type": "Point", "coordinates": [ -73.959431, 40.676513 ] } },
{ "type": "Feature", "properties": { "start_station_id": "6429_01", "start_station_name": "Queens Plaza North & Crescent St", "start_lat": 40.75110165, "start_lng": -73.94073717000001 }, "geometry": { "type": "Point", "coordinates": [ -73.94073717, 40.75110165 ] } },
{ "type": "Feature", "properties": { "start_station_id": "5430_08", "start_station_name": "Franklin St & W Broadway", "start_lat": 40.71911552, "start_lng": -74.00666661 }, "geometry": { "type": "Point", "coordinates": [ -74.00666661, 40.71911552 ] } },
{ "type": "Feature", "properties": { "start_station_id": "5971_08", "start_station_name": "E 20 St & 2 Ave", "start_lat": 40.73587678, "start_lng": -73.98205027 }, "geometry": { "type": "Point", "coordinates": [ -73.98205027, 40.73587678 ] } },
{ "type": "Feature", "properties": { "start_station_id": "7443_17", "start_station_name": "E 98 St & Park Ave", "start_lat": 40.78813, "start_lng": -73.95206 }, "geometry": { "type": "Point", "coordinates": [ -73.95206, 40.78813 ] } },
{ "type": "Feature", "properties": { "start_station_id": "6230_04", "start_station_name": "FDR Drive & E 35 St", "start_lat": 40.744219, "start_lng": -73.97121214000001 }, "geometry": { "type": "Point", "coordinates": [ -73.97121214, 40.744219 ] } },
{ "type": "Feature", "properties": { "start_station_id": "5164_05", "start_station_name": "Broadway & Berry St", "start_lat": 40.710361299225809, "start_lng": -73.965303897857666 }, "geometry": { "type": "Point", "coordinates": [ -73.965303897857666, 40.710361299225809 ] } },
{ "type": "Feature", "properties": { "start_station_id": "6893_10", "start_station_name": "31 Ave & Crescent St", "start_lat": 40.7658346, "start_lng": -73.9265474 }, "geometry": { "type": "Point", "coordinates": [ -73.9265474, 40.7658346 ] } },
{ "type": "Feature", "properties": { "start_station_id": "4543_07", "start_station_name": "Lewis Ave & Greene Ave", "start_lat": 40.68995, "start_lng": -73.9365 }, "geometry": { "type": "Point", "coordinates": [ -73.9365, 40.68995 ] } },
{ "type": "Feature", "properties": { "start_station_id": "6365_10", "start_station_name": "79 St & 37 Ave", "start_lat": 40.74937, "start_lng": -73.88714 }, "geometry": { "type": "Point", "coordinates": [ -73.88714, 40.74937 ] } },
{ "type": "Feature", "properties": { "start_station_id": "6958_06", "start_station_name": "Crescent St & 30 Ave", "start_lat": 40.768692, "start_lng": -73.9249574 }, "geometry": { "type": "Point", "coordinates": [ -73.9249574, 40.768692 ] } },
{ "type": "Feature", "properties": { "start_station_id": "7812_01", "start_station_name": "E 149 St & Jackson Ave", "start_lat": 40.813135, "start_lng": -73.909235 }, "geometry": { "type": "Point", "coordinates": [ -73.909235, 40.813135 ] } },
{ "type": "Feature", "properties": { "start_station_id": "4936_21", "start_station_name": "Main St & Plymouth St", "start_lat": 40.703781673548306, "start_lng": -73.990733921527863 }, "geometry": { "type": "Point", "coordinates": [ -73.990733921527863, 40.703781673548306 ] } },
{ "type": "Feature", "properties": { "start_station_id": "4441_06", "start_station_name": "Broadway & Hancock St", "start_lat": 40.68663, "start_lng": -73.9168 }, "geometry": { "type": "Point", "coordinates": [ -73.9168, 40.68663 ] } },
{ "type": "Feature", "properties": { "start_station_id": "5297_02", "start_station_name": "Vesey Pl & River Terrace", "start_lat": 40.7153379, "start_lng": -74.01658354 }, "geometry": { "type": "Point", "coordinates": [ -74.01658354, 40.7153379 ] } },
{ "type": "Feature", "properties": { "start_station_id": "6955_01", "start_station_name": "W 56 St & 10 Ave", "start_lat": 40.768254, "start_lng": -73.988639 }, "geometry": { "type": "Point", "coordinates": [ -73.988639, 40.768254 ] } },
{ "type": "Feature", "properties": { "start_station_id": "6948_10", "start_station_name": "Broadway & W 58 St", "start_lat": 40.76695317, "start_lng": -73.98169333 }, "geometry": { "type": "Point", "coordinates": [ -73.98169333, 40.76695317 ] } },
{ "type": "Feature", "properties": { "start_station_id": "6732_01", "start_station_name": "E 56 St & Madison Ave", "start_lat": 40.761573, "start_lng": -73.972628 }, "geometry": { "type": "Point", "coordinates": [ -73.972628, 40.761573 ] } },
{ "type": "Feature", "properties": { "start_station_id": "4386_07", "start_station_name": "Carlton Ave & Greene Ave", "start_lat": 40.685957, "start_lng": -73.971468 }, "geometry": { "type": "Point", "coordinates": [ -73.971468, 40.685957 ] } },
{ "type": "Feature", "properties": { "start_station_id": "5288_08", "start_station_name": "Park Pl & Church St", "start_lat": 40.713341842759071, "start_lng": -74.009355157613754 }, "geometry": { "type": "Point", "coordinates": [ -74.009355157613754, 40.713341842759071 ] } },
{ "type": "Feature", "properties": { "start_station_id": "4266_03", "start_station_name": "Clinton St & Union St", "start_lat": 40.6831164, "start_lng": -73.99785267 }, "geometry": { "type": "Point", "coordinates": [ -73.99785267, 40.6831164 ] } },
{ "type": "Feature", "properties": { "start_station_id": "7126_01", "start_station_name": "21 St & Hoyt Ave S", "start_lat": 40.774645, "start_lng": -73.923706 }, "geometry": { "type": "Point", "coordinates": [ -73.923706, 40.774645 ] } },
{ "type": "Feature", "properties": { "start_station_id": "7823_03", "start_station_name": "Broadway & Moylan Pl", "start_lat": 40.8143256, "start_lng": -73.9590255 }, "geometry": { "type": "Point", "coordinates": [ -73.9590255, 40.8143256 ] } },
{ "type": "Feature", "properties": { "start_station_id": "4781_05", "start_station_name": "Nassau St & Duffield St", "start_lat": 40.698477, "start_lng": -73.98384 }, "geometry": { "type": "Point", "coordinates": [ -73.98384, 40.698477 ] } },
{ "type": "Feature", "properties": { "start_station_id": "7020_02", "start_station_name": "E 77 St & 1 Ave", "start_lat": 40.770955538692348, "start_lng": -73.953562080969263 }, "geometry": { "type": "Point", "coordinates": [ -73.953562080969263, 40.770955538692348 ] } },
{ "type": "Feature", "properties": { "start_station_id": "5602_06", "start_station_name": "Greene St & Prince St", "start_lat": 40.725117344223868, "start_lng": -73.999304920434952 }, "geometry": { "type": "Point", "coordinates": [ -73.999304920434952, 40.725117344223868 ] } },
{ "type": "Feature", "properties": { "start_station_id": "6514_08", "start_station_name": "Vernon Blvd & 41 Rd", "start_lat": 40.7552433, "start_lng": -73.9485678 }, "geometry": { "type": "Point", "coordinates": [ -73.9485678, 40.7552433 ] } },
{ "type": "Feature", "properties": { "start_station_id": "4816_02", "start_station_name": "Myrtle Ave & Linden St", "start_lat": 40.69943, "start_lng": -73.91337 }, "geometry": { "type": "Point", "coordinates": [ -73.91337, 40.69943 ] } },
{ "type": "Feature", "properties": { "start_station_id": "8108_02", "start_station_name": "Riverside Dr & W 153 St", "start_lat": 40.832164, "start_lng": -73.949702 }, "geometry": { "type": "Point", "coordinates": [ -73.949702, 40.832164 ] } },
{ "type": "Feature", "properties": { "start_station_id": "7311_02", "start_station_name": "Amsterdam Ave & W 79 St", "start_lat": 40.7829391, "start_lng": -73.9786517 }, "geometry": { "type": "Point", "coordinates": [ -73.9786517, 40.7829391 ] } },
{ "type": "Feature", "properties": { "start_station_id": "5887_03", "start_station_name": "Queens Blvd & 56 Ave", "start_lat": 40.73481, "start_lng": -73.87431 }, "geometry": { "type": "Point", "coordinates": [ -73.87431, 40.73481 ] } },
{ "type": "Feature", "properties": { "start_station_id": "4645_04", "start_station_name": "Henry St & Remsen St", "start_lat": 40.694009648659943, "start_lng": -73.994651287794113 }, "geometry": { "type": "Point", "coordinates": [ -73.994651287794113, 40.694009648659943 ] } },
{ "type": "Feature", "properties": { "start_station_id": "6759_15", "start_station_name": "Crescent St & 34 Ave", "start_lat": 40.76108, "start_lng": -73.930562 }, "geometry": { "type": "Point", "coordinates": [ -73.930562, 40.76108 ] } },
{ "type": "Feature", "properties": { "start_station_id": "5294_04", "start_station_name": "Henry St & Grand St", "start_lat": 40.714211, "start_lng": -73.981095 }, "geometry": { "type": "Point", "coordinates": [ -73.981095, 40.714211 ] } },
{ "type": "Feature", "properties": { "start_station_id": "5210_01", "start_station_name": "Powers St & Olive St", "start_lat": 40.71323, "start_lng": -73.93894 }, "geometry": { "type": "Point", "coordinates": [ -73.93894, 40.71323 ] } },
{ "type": "Feature", "properties": { "start_station_id": "3208_07", "start_station_name": "Dahill Rd & 12 Ave", "start_lat": 40.646037, "start_lng": -73.980963 }, "geometry": { "type": "Point", "coordinates": [ -73.980963, 40.646037 ] } },
{ "type": "Feature", "properties": { "start_station_id": "5509_02", "start_station_name": "Washington St & Laight St", "start_lat": 40.72231, "start_lng": -74.0106 }, "geometry": { "type": "Point", "coordinates": [ -74.0106, 40.72231 ] } },
{ "type": "Feature", "properties": { "start_station_id": "6575_03", "start_station_name": "E 51 St & 2 Ave", "start_lat": 40.755293, "start_lng": -73.967641 }, "geometry": { "type": "Point", "coordinates": [ -73.967641, 40.755293 ] } },
{ "type": "Feature", "properties": { "start_station_id": "6390_05", "start_station_name": "93 St & Roosevelt Ave", "start_lat": 40.74888, "start_lng": -73.87368 }, "geometry": { "type": "Point", "coordinates": [ -73.87368, 40.74888 ] } },
{ "type": "Feature", "properties": { "start_station_id": "6206_08", "start_station_name": "E 30 St & Park Ave S", "start_lat": 40.74444921, "start_lng": -73.98303529 }, "geometry": { "type": "Point", "coordinates": [ -73.98303529, 40.74444921 ] } },
{ "type": "Feature", "properties": { "start_station_id": "7974_01", "start_station_name": "3 Ave & E 163 St", "start_lat": 40.823872, "start_lng": -73.908699 }, "geometry": { "type": "Point", "coordinates": [ -73.908699, 40.823872 ] } },
{ "type": "Feature", "properties": { "start_station_id": "5752_09", "start_station_name": "Greenpoint Ave & West St", "start_lat": 40.729803, "start_lng": -73.959099 }, "geometry": { "type": "Point", "coordinates": [ -73.959099, 40.729803 ] } },
{ "type": "Feature", "properties": { "start_station_id": "6498_10", "start_station_name": "E 47 St & 2 Ave", "start_lat": 40.75323098, "start_lng": -73.97032517 }, "geometry": { "type": "Point", "coordinates": [ -73.97032517, 40.75323098 ] } },
{ "type": "Feature", "properties": { "start_station_id": "8358_03", "start_station_name": "W 180 St & Ft Washington Ave", "start_lat": 40.849972, "start_lng": -73.938423 }, "geometry": { "type": "Point", "coordinates": [ -73.938423, 40.849972 ] } },
{ "type": "Feature", "properties": { "start_station_id": "3515_01", "start_station_name": "7 Ave & 22 St", "start_lat": 40.658029, "start_lng": -73.989605 }, "geometry": { "type": "Point", "coordinates": [ -73.989605, 40.658029 ] } },
{ "type": "Feature", "properties": { "start_station_id": "4298_05", "start_station_name": "Degraw St & Smith St", "start_lat": 40.6829151, "start_lng": -73.99318208 }, "geometry": { "type": "Point", "coordinates": [ -73.99318208, 40.6829151 ] } },
{ "type": "Feature", "properties": { "start_station_id": "4513_06", "start_station_name": "DeKalb Ave & Hudson Ave", "start_lat": 40.689888, "start_lng": -73.981013 }, "geometry": { "type": "Point", "coordinates": [ -73.981013, 40.689888 ] } },
{ "type": "Feature", "properties": { "start_station_id": "6056_02", "start_station_name": "Queens Blvd & Albion Ave", "start_lat": 40.73856, "start_lng": -73.88553 }, "geometry": { "type": "Point", "coordinates": [ -73.88553, 40.73856 ] } },
{ "type": "Feature", "properties": { "start_station_id": "7735_23", "start_station_name": "E 128 St & Madison Ave", "start_lat": 40.80756, "start_lng": -73.939182 }, "geometry": { "type": "Point", "coordinates": [ -73.939182, 40.80756 ] } },
{ "type": "Feature", "properties": { "start_station_id": "7304_08", "start_station_name": "W 82 St & Central Park West", "start_lat": 40.78275, "start_lng": -73.97137 }, "geometry": { "type": "Point", "coordinates": [ -73.97137, 40.78275 ] } },
{ "type": "Feature", "properties": { "start_station_id": "3922_02", "start_station_name": "10 St & 2 Ave", "start_lat": 40.671907, "start_lng": -73.993612 }, "geometry": { "type": "Point", "coordinates": [ -73.993612, 40.671907 ] } },
{ "type": "Feature", "properties": { "start_station_id": "3620_02", "start_station_name": "Windsor Pl & 8 Ave", "start_lat": 40.660906, "start_lng": -73.983074 }, "geometry": { "type": "Point", "coordinates": [ -73.983074, 40.660906 ] } },
{ "type": "Feature", "properties": { "start_station_id": "6701_05", "start_station_name": "Jackson Mill Rd & 93 St", "start_lat": 40.75874, "start_lng": -73.87535 }, "geometry": { "type": "Point", "coordinates": [ -73.87535, 40.75874 ] } },
{ "type": "Feature", "properties": { "start_station_id": "4485_10", "start_station_name": "Clifton Pl & Bedford Ave", "start_lat": 40.688655, "start_lng": -73.955156 }, "geometry": { "type": "Point", "coordinates": [ -73.955156, 40.688655 ] } },
{ "type": "Feature", "properties": { "start_station_id": "4672_01", "start_station_name": "Menahan St & Central Ave", "start_lat": 40.69543, "start_lng": -73.9196 }, "geometry": { "type": "Point", "coordinates": [ -73.9196, 40.69543 ] } },
{ "type": "Feature", "properties": { "start_station_id": "8229_04", "start_station_name": "Sheridan Ave & E 172 St", "start_lat": 40.840494, "start_lng": -73.911479 }, "geometry": { "type": "Point", "coordinates": [ -73.911479, 40.840494 ] } },
{ "type": "Feature", "properties": { "start_station_id": "4392_04", "start_station_name": "Putnam Ave & Throop Ave", "start_lat": 40.6851532, "start_lng": -73.94111 }, "geometry": { "type": "Point", "coordinates": [ -73.94111, 40.6851532 ] } },
{ "type": "Feature", "properties": { "start_station_id": "6025_08", "start_station_name": "39 St & 50 Ave", "start_lat": 40.738249373459439, "start_lng": -73.92737478017807 }, "geometry": { "type": "Point", "coordinates": [ -73.92737478017807, 40.738249373459439 ] } },
{ "type": "Feature", "properties": { "start_station_id": "6425_04", "start_station_name": "11 Ave & W 27 St", "start_lat": 40.751396, "start_lng": -74.005226 }, "geometry": { "type": "Point", "coordinates": [ -74.005226, 40.751396 ] } },
{ "type": "Feature", "properties": { "start_station_id": "7769_06", "start_station_name": "5 Ave & E 135 St", "start_lat": 40.812191, "start_lng": -73.937838 }, "geometry": { "type": "Point", "coordinates": [ -73.937838, 40.812191 ] } },
{ "type": "Feature", "properties": { "start_station_id": "7458_09", "start_station_name": "W 90 St & Amsterdam Ave", "start_lat": 40.79018, "start_lng": -73.97289 }, "geometry": { "type": "Point", "coordinates": [ -73.97289, 40.79018 ] } },
{ "type": "Feature", "properties": { "start_station_id": "4208_01", "start_station_name": "Sterling Pl & 5 Ave", "start_lat": 40.678970070475735, "start_lng": -73.978552669286714 }, "geometry": { "type": "Point", "coordinates": [ -73.978552669286714, 40.678970070475735 ] } },
{ "type": "Feature", "properties": { "start_station_id": "5470_12", "start_station_name": "North Moore St & Greenwich St", "start_lat": 40.720195214374648, "start_lng": -74.010300636291504 }, "geometry": { "type": "Point", "coordinates": [ -74.010300636291504, 40.720195214374648 ] } },
{ "type": "Feature", "properties": { "start_station_id": "5117_05", "start_station_name": "Stagg St & Union Ave", "start_lat": 40.70877084, "start_lng": -73.95095259 }, "geometry": { "type": "Point", "coordinates": [ -73.95095259, 40.70877084 ] } },
{ "type": "Feature", "properties": { "start_station_id": "6014_01", "start_station_name": "St James Ave & 51 Ave", "start_lat": 40.73813, "start_lng": -73.88104 }, "geometry": { "type": "Point", "coordinates": [ -73.88104, 40.73813 ] } },
{ "type": "Feature", "properties": { "start_station_id": "5703_13", "start_station_name": "Ave A & E 11 St", "start_lat": 40.728547450239439, "start_lng": -73.981759250164032 }, "geometry": { "type": "Point", "coordinates": [ -73.981759250164032, 40.728547450239439 ] } },
{ "type": "Feature", "properties": { "start_station_id": "5779_10", "start_station_name": "E 14 St & 1 Ave", "start_lat": 40.73139303364151, "start_lng": -73.982867002487183 }, "geometry": { "type": "Point", "coordinates": [ -73.982867002487183, 40.73139303364151 ] } },
{ "type": "Feature", "properties": { "start_station_id": "8041_07", "start_station_name": "E 161 St & River Ave", "start_lat": 40.827883, "start_lng": -73.927111 }, "geometry": { "type": "Point", "coordinates": [ -73.927111, 40.827883 ] } },
{ "type": "Feature", "properties": { "start_station_id": "7987_14", "start_station_name": "Rogers Pl & E 165 St", "start_lat": 40.823883664417608, "start_lng": -73.897402770858207 }, "geometry": { "type": "Point", "coordinates": [ -73.897402770858207, 40.823883664417608 ] } },
{ "type": "Feature", "properties": { "start_station_id": "6854_05", "start_station_name": "W 50 St & 9 Ave", "start_lat": 40.763604677958625, "start_lng": -73.989179581403732 }, "geometry": { "type": "Point", "coordinates": [ -73.989179581403732, 40.763604677958625 ] } },
{ "type": "Feature", "properties": { "start_station_id": "8579_03", "start_station_name": "W 204 St & Nagle Ave", "start_lat": 40.863211, "start_lng": -73.920827 }, "geometry": { "type": "Point", "coordinates": [ -73.920827, 40.863211 ] } },
{ "type": "Feature", "properties": { "start_station_id": "5489_06", "start_station_name": "N 9 St & Wythe Ave", "start_lat": 40.72054, "start_lng": -73.959 }, "geometry": { "type": "Point", "coordinates": [ -73.959, 40.72054 ] } },
{ "type": "Feature", "properties": { "start_station_id": "5458_02", "start_station_name": "N 5 St & Northside Piers", "start_lat": 40.719876, "start_lng": -73.963865 }, "geometry": { "type": "Point", "coordinates": [ -73.963865, 40.719876 ] } },
{ "type": "Feature", "properties": { "start_station_id": "6280_12", "start_station_name": "E 32 St & Park Ave", "start_lat": 40.7457121, "start_lng": -73.98194829000001 }, "geometry": { "type": "Point", "coordinates": [ -73.98194829, 40.7457121 ] } },
{ "type": "Feature", "properties": { "start_station_id": "7188_10", "start_station_name": "E 81 St & Park Ave", "start_lat": 40.77677702, "start_lng": -73.9590097 }, "geometry": { "type": "Point", "coordinates": [ -73.9590097, 40.77677702 ] } },
{ "type": "Feature", "properties": { "start_station_id": "5578_02", "start_station_name": "Watts St & Greenwich St", "start_lat": 40.72405549, "start_lng": -74.00965965 }, "geometry": { "type": "Point", "coordinates": [ -74.00965965, 40.72405549 ] } },
{ "type": "Feature", "properties": { "start_station_id": "6104_01", "start_station_name": "55 Ave & Center Blvd", "start_lat": 40.740288, "start_lng": -73.960697 }, "geometry": { "type": "Point", "coordinates": [ -73.960697, 40.740288 ] } },
{ "type": "Feature", "properties": { "start_station_id": "4042_08", "start_station_name": "Underhill Ave & Lincoln Pl", "start_lat": 40.6740123, "start_lng": -73.9671457 }, "geometry": { "type": "Point", "coordinates": [ -73.9671457, 40.6740123 ] } },
{ "type": "Feature", "properties": { "start_station_id": "5137_10", "start_station_name": "Spruce St & Nassau St", "start_lat": 40.71146364, "start_lng": -74.00552427 }, "geometry": { "type": "Point", "coordinates": [ -74.00552427, 40.71146364 ] } },
{ "type": "Feature", "properties": { "start_station_id": "7884_04", "start_station_name": "E 149 St & Park Ave", "start_lat": 40.818154, "start_lng": -73.925294 }, "geometry": { "type": "Point", "coordinates": [ -73.925294, 40.818154 ] } },
{ "type": "Feature", "properties": { "start_station_id": "5569_06", "start_station_name": "W Broadway & Spring St", "start_lat": 40.724946723594158, "start_lng": -74.00165855884552 }, "geometry": { "type": "Point", "coordinates": [ -74.00165855884552, 40.724946723594158 ] } },
{ "type": "Feature", "properties": { "start_station_id": "8474_02", "start_station_name": "W 190 St & Broadway", "start_lat": 40.856487335235762, "start_lng": -73.932969868183136 }, "geometry": { "type": "Point", "coordinates": [ -73.932969868183136, 40.856487335235762 ] } },
{ "type": "Feature", "properties": { "start_station_id": "4517_03", "start_station_name": "Jefferson Ave & Evergreen Ave", "start_lat": 40.68989, "start_lng": -73.91458 }, "geometry": { "type": "Point", "coordinates": [ -73.91458, 40.68989 ] } },
{ "type": "Feature", "properties": { "start_station_id": "5769_06", "start_station_name": "Ave C & E 16 St", "start_lat": 40.729848303465289, "start_lng": -73.974552154541016 }, "geometry": { "type": "Point", "coordinates": [ -73.974552154541016, 40.729848303465289 ] } },
{ "type": "Feature", "properties": { "start_station_id": "7599_02", "start_station_name": "E 115 St & Madison Ave", "start_lat": 40.7989445, "start_lng": -73.944846 }, "geometry": { "type": "Point", "coordinates": [ -73.944846, 40.7989445 ] } },
{ "type": "Feature", "properties": { "start_station_id": "7830_03", "start_station_name": "Prospect Ave & E 151 St", "start_lat": 40.814232, "start_lng": -73.903927 }, "geometry": { "type": "Point", "coordinates": [ -73.903927, 40.814232 ] } },
{ "type": "Feature", "properties": { "start_station_id": "4193_14", "start_station_name": "1 Pl & Clinton St", "start_lat": 40.6809591, "start_lng": -73.99905709 }, "geometry": { "type": "Point", "coordinates": [ -73.99905709, 40.6809591 ] } },
{ "type": "Feature", "properties": { "start_station_id": "4137_14", "start_station_name": "Coffey St & Ferris St", "start_lat": 40.678183879776469, "start_lng": -74.017016887664795 }, "geometry": { "type": "Point", "coordinates": [ -74.017016887664795, 40.678183879776469 ] } },
{ "type": "Feature", "properties": { "start_station_id": "4692_01", "start_station_name": "Clermont Ave & Park Ave", "start_lat": 40.69573398, "start_lng": -73.97129668 }, "geometry": { "type": "Point", "coordinates": [ -73.97129668, 40.69573398 ] } },
{ "type": "Feature", "properties": { "start_station_id": "5930_02", "start_station_name": "Queens Blvd & Broadway", "start_lat": 40.73672, "start_lng": -73.87728 }, "geometry": { "type": "Point", "coordinates": [ -73.87728, 40.73672 ] } },
{ "type": "Feature", "properties": { "start_station_id": "4751_01", "start_station_name": "Cedar St & Myrtle Ave", "start_lat": 40.697842, "start_lng": -73.926241 }, "geometry": { "type": "Point", "coordinates": [ -73.926241, 40.697842 ] } },
{ "type": "Feature", "properties": { "start_station_id": "5359_11", "start_station_name": "Leonard St & Church St", "start_lat": 40.717571, "start_lng": -74.005549 }, "geometry": { "type": "Point", "coordinates": [ -74.005549, 40.717571 ] } },
{ "type": "Feature", "properties": { "start_station_id": "6098_10", "start_station_name": "Broadway & E 21 St", "start_lat": 40.739888408589955, "start_lng": -73.989585936069489 }, "geometry": { "type": "Point", "coordinates": [ -73.989585936069489, 40.739888408589955 ] } },
{ "type": "Feature", "properties": { "start_station_id": "4190_06", "start_station_name": "Grand Ave & Bergen St", "start_lat": 40.678045, "start_lng": -73.962408 }, "geometry": { "type": "Point", "coordinates": [ -73.962408, 40.678045 ] } },
{ "type": "Feature", "properties": { "start_station_id": "5779_08", "start_station_name": "1 Ave & E 16 St", "start_lat": 40.73221853, "start_lng": -73.98165557 }, "geometry": { "type": "Point", "coordinates": [ -73.98165557, 40.73221853 ] } },
{ "type": "Feature", "properties": { "start_station_id": "5561_04", "start_station_name": "Mott St & Prince St", "start_lat": 40.72317958, "start_lng": -73.99480012 }, "geometry": { "type": "Point", "coordinates": [ -73.99480012, 40.72317958 ] } },
{ "type": "Feature", "properties": { "start_station_id": "6664_05", "start_station_name": "40 Ave & 9 St", "start_lat": 40.75742, "start_lng": -73.945133 }, "geometry": { "type": "Point", "coordinates": [ -73.945133, 40.75742 ] } },
{ "type": "Feature", "properties": { "start_station_id": "7524_16", "start_station_name": "Riverside Dr & W 91 St", "start_lat": 40.793134809866629, "start_lng": -73.977003693580627 }, "geometry": { "type": "Point", "coordinates": [ -73.977003693580627, 40.793134809866629 ] } },
{ "type": "Feature", "properties": { "start_station_id": "4695_04", "start_station_name": "Irving Ave & Halsey St", "start_lat": 40.69467, "start_lng": -73.90663 }, "geometry": { "type": "Point", "coordinates": [ -73.90663, 40.69467 ] } },
{ "type": "Feature", "properties": { "start_station_id": "7538_18", "start_station_name": "Central Park W & W 97 St", "start_lat": 40.792495194951108, "start_lng": -73.964170664630714 }, "geometry": { "type": "Point", "coordinates": [ -73.964170664630714, 40.792495194951108 ] } },
{ "type": "Feature", "properties": { "start_station_id": "5406_02", "start_station_name": "Rivington St & Ridge St", "start_lat": 40.71850211, "start_lng": -73.98329859 }, "geometry": { "type": "Point", "coordinates": [ -73.98329859, 40.71850211 ] } },
{ "type": "Feature", "properties": { "start_station_id": "4789_03", "start_station_name": "Clark St & Henry St", "start_lat": 40.69760127, "start_lng": -73.99344559 }, "geometry": { "type": "Point", "coordinates": [ -73.99344559, 40.69760127 ] } },
{ "type": "Feature", "properties": { "start_station_id": "4748_07", "start_station_name": "Clinton St & Tillary St", "start_lat": 40.696232971293149, "start_lng": -73.991420567035675 }, "geometry": { "type": "Point", "coordinates": [ -73.991420567035675, 40.696232971293149 ] } },
{ "type": "Feature", "properties": { "start_station_id": "5869_04", "start_station_name": "Huron St & Franklin St", "start_lat": 40.73266, "start_lng": -73.95826 }, "geometry": { "type": "Point", "coordinates": [ -73.95826, 40.73266 ] } },
{ "type": "Feature", "properties": { "start_station_id": "7563_06", "start_station_name": "E 116 St & 2 Ave", "start_lat": 40.796879, "start_lng": -73.937261 }, "geometry": { "type": "Point", "coordinates": [ -73.937261, 40.796879 ] } },
{ "type": "Feature", "properties": { "start_station_id": "7898_03", "start_station_name": "St Nicholas Ave & W 137 St", "start_lat": 40.818477, "start_lng": -73.947568 }, "geometry": { "type": "Point", "coordinates": [ -73.947568, 40.818477 ] } },
{ "type": "Feature", "properties": { "start_station_id": "8711_02", "start_station_name": "W 225 St & Exterior St", "start_lat": 40.873265, "start_lng": -73.906646 }, "geometry": { "type": "Point", "coordinates": [ -73.906646, 40.873265 ] } },
{ "type": "Feature", "properties": { "start_station_id": "4719_04", "start_station_name": "St Felix Ave & 61 St", "start_lat": 40.69715, "start_lng": -73.8936 }, "geometry": { "type": "Point", "coordinates": [ -73.8936, 40.69715 ] } },
{ "type": "Feature", "properties": { "start_station_id": "8142_03", "start_station_name": "Riverside Dr E & W 155 St", "start_lat": 40.834097985815255, "start_lng": -73.948349741948164 }, "geometry": { "type": "Point", "coordinates": [ -73.948349741948164, 40.834097985815255 ] } },
{ "type": "Feature", "properties": { "start_station_id": "6552_07", "start_station_name": "34 Ave & 89 St", "start_lat": 40.75437, "start_lng": -73.87833 }, "geometry": { "type": "Point", "coordinates": [ -73.87833, 40.75437 ] } },
{ "type": "Feature", "properties": { "start_station_id": "6047_03", "start_station_name": "51 Ave & Van Loon St", "start_lat": 40.73832, "start_lng": -73.87913 }, "geometry": { "type": "Point", "coordinates": [ -73.87913, 40.73832 ] } },
{ "type": "Feature", "properties": { "start_station_id": "4982_02", "start_station_name": "Taylor St & Bedford Ave", "start_lat": 40.705774, "start_lng": -73.963252 }, "geometry": { "type": "Point", "coordinates": [ -73.963252, 40.705774 ] } },
{ "type": "Feature", "properties": { "start_station_id": "4080_01", "start_station_name": "Schenectady Ave & Pacific St", "start_lat": 40.67686, "start_lng": -73.93327 }, "geometry": { "type": "Point", "coordinates": [ -73.93327, 40.67686 ] } },
{ "type": "Feature", "properties": { "start_station_id": "7685_14", "start_station_name": "Mt Morris Park W & W 120 St", "start_lat": 40.804038, "start_lng": -73.945925 }, "geometry": { "type": "Point", "coordinates": [ -73.945925, 40.804038 ] } },
{ "type": "Feature", "properties": { "start_station_id": "3776_10", "start_station_name": "McKeever Pl & Sullivan Pl", "start_lat": 40.664323315774688, "start_lng": -73.959217914864666 }, "geometry": { "type": "Point", "coordinates": [ -73.959217914864666, 40.664323315774688 ] } },
{ "type": "Feature", "properties": { "start_station_id": "4617_01", "start_station_name": "Lewis Ave & Kosciuszko St", "start_lat": 40.69237074, "start_lng": -73.93705428 }, "geometry": { "type": "Point", "coordinates": [ -73.93705428, 40.69237074 ] } },
{ "type": "Feature", "properties": { "start_station_id": "8095_06", "start_station_name": "Hoe Ave & Jennings St", "start_lat": 40.832171, "start_lng": -73.889686 }, "geometry": { "type": "Point", "coordinates": [ -73.889686, 40.832171 ] } },
{ "type": "Feature", "properties": { "start_station_id": "6735_03", "start_station_name": "50 St & 30 Ave", "start_lat": 40.760083, "start_lng": -73.907107 }, "geometry": { "type": "Point", "coordinates": [ -73.907107, 40.760083 ] } },
{ "type": "Feature", "properties": { "start_station_id": "6190_03", "start_station_name": "W 18 St & 9 Ave", "start_lat": 40.7435337324616, "start_lng": -74.003675580024719 }, "geometry": { "type": "Point", "coordinates": [ -74.003675580024719, 40.7435337324616 ] } },
{ "type": "Feature", "properties": { "start_station_id": "8469_05", "start_station_name": "Audubon Ave & W 192 St", "start_lat": 40.855890306038887, "start_lng": -73.927082419395447 }, "geometry": { "type": "Point", "coordinates": [ -73.927082419395447, 40.855890306038887 ] } },
{ "type": "Feature", "properties": { "start_station_id": "4707_04", "start_station_name": "Nostrand Ave & Myrtle Ave", "start_lat": 40.69527008, "start_lng": -73.95238108 }, "geometry": { "type": "Point", "coordinates": [ -73.95238108, 40.69527008 ] } },
{ "type": "Feature", "properties": { "start_station_id": "8206_17", "start_station_name": "Amsterdam Ave & W 167 St", "start_lat": 40.839443, "start_lng": -73.937044 }, "geometry": { "type": "Point", "coordinates": [ -73.937044, 40.839443 ] } },
{ "type": "Feature", "properties": { "start_station_id": "3782_03", "start_station_name": "Carroll St & Utica Ave", "start_lat": 40.66619, "start_lng": -73.93162 }, "geometry": { "type": "Point", "coordinates": [ -73.93162, 40.66619 ] } },
{ "type": "Feature", "properties": { "start_station_id": "4757_06", "start_station_name": "Seneca Ave & Decatur St", "start_lat": 40.69723, "start_lng": -73.89811 }, "geometry": { "type": "Point", "coordinates": [ -73.89811, 40.69723 ] } },
{ "type": "Feature", "properties": { "start_station_id": "6937_07", "start_station_name": "Vernon Blvd & 10 St", "start_lat": 40.7671863, "start_lng": -73.9373554 }, "geometry": { "type": "Point", "coordinates": [ -73.9373554, 40.7671863 ] } },
{ "type": "Feature", "properties": { "start_station_id": "8336_02", "start_station_name": "Wadsworth Ave & W 179 St", "start_lat": 40.848467, "start_lng": -73.936064 }, "geometry": { "type": "Point", "coordinates": [ -73.936064, 40.848467 ] } },
{ "type": "Feature", "properties": { "start_station_id": "8226_05", "start_station_name": "W 165 St & Fort Washington Ave", "start_lat": 40.84004, "start_lng": -73.942939 }, "geometry": { "type": "Point", "coordinates": [ -73.942939, 40.84004 ] } },
{ "type": "Feature", "properties": { "start_station_id": "3344_02", "start_station_name": "Park Circle & East Dr", "start_lat": 40.651566, "start_lng": -73.972212 }, "geometry": { "type": "Point", "coordinates": [ -73.972212, 40.651566 ] } },
{ "type": "Feature", "properties": { "start_station_id": "4128_08", "start_station_name": "Pioneer St & Richards St", "start_lat": 40.6777748, "start_lng": -74.0094613 }, "geometry": { "type": "Point", "coordinates": [ -74.0094613, 40.6777748 ] } },
{ "type": "Feature", "properties": { "start_station_id": "5633_04", "start_station_name": "Banker St & Meserole Ave", "start_lat": 40.72606, "start_lng": -73.95621 }, "geometry": { "type": "Point", "coordinates": [ -73.95621, 40.72606 ] } },
{ "type": "Feature", "properties": { "start_station_id": "6756_05", "start_station_name": "W 44 St & 11 Ave", "start_lat": 40.762009, "start_lng": -73.996975 }, "geometry": { "type": "Point", "coordinates": [ -73.996975, 40.762009 ] } },
{ "type": "Feature", "properties": { "start_station_id": "6925_09", "start_station_name": "2 Ave & E 72 St", "start_lat": 40.768762029309599, "start_lng": -73.958407938480377 }, "geometry": { "type": "Point", "coordinates": [ -73.958407938480377, 40.768762029309599 ] } },
{ "type": "Feature", "properties": { "start_station_id": "4404_10", "start_station_name": "Bond St & Bergen St", "start_lat": 40.6849668, "start_lng": -73.98620772 }, "geometry": { "type": "Point", "coordinates": [ -73.98620772, 40.6849668 ] } },
{ "type": "Feature", "properties": { "start_station_id": "3657_06", "start_station_name": "Sterling St & Nostrand Ave", "start_lat": 40.66318, "start_lng": -73.95076 }, "geometry": { "type": "Point", "coordinates": [ -73.95076, 40.66318 ] } },
{ "type": "Feature", "properties": { "start_station_id": "6395_01", "start_station_name": "21 St & 43 Ave", "start_lat": 40.75052534, "start_lng": -73.94594845 }, "geometry": { "type": "Point", "coordinates": [ -73.94594845, 40.75052534 ] } },
{ "type": "Feature", "properties": { "start_station_id": "4830_02", "start_station_name": "61 St & 60 Ln", "start_lat": 40.70055, "start_lng": -73.8943 }, "geometry": { "type": "Point", "coordinates": [ -73.8943, 40.70055 ] } },
{ "type": "Feature", "properties": { "start_station_id": "7981_27", "start_station_name": "W 140 St & Riverside Dr", "start_lat": 40.824013, "start_lng": -73.954743 }, "geometry": { "type": "Point", "coordinates": [ -73.954743, 40.824013 ] } },
{ "type": "Feature", "properties": { "start_station_id": "6717_06", "start_station_name": "9 Ave & W 45 St", "start_lat": 40.76019252, "start_lng": -73.9912551 }, "geometry": { "type": "Point", "coordinates": [ -73.9912551, 40.76019252 ] } },
{ "type": "Feature", "properties": { "start_station_id": "6408_08", "start_station_name": "75 St & 35 Ave", "start_lat": 40.75091, "start_lng": -73.89111 }, "geometry": { "type": "Point", "coordinates": [ -73.89111, 40.75091 ] } },
{ "type": "Feature", "properties": { "start_station_id": "6766_03", "start_station_name": "Bulova Ave & Brooklyn Queens Expressway W", "start_lat": 40.762507, "start_lng": -73.902534 }, "geometry": { "type": "Point", "coordinates": [ -73.902534, 40.762507 ] } },
{ "type": "Feature", "properties": { "start_station_id": "4452_03", "start_station_name": "Lexington Ave & Classon Ave", "start_lat": 40.68676793, "start_lng": -73.95928168 }, "geometry": { "type": "Point", "coordinates": [ -73.95928168, 40.68676793 ] } },
{ "type": "Feature", "properties": { "start_station_id": "6757_03", "start_station_name": "73 St & 25 Ave", "start_lat": 40.76205, "start_lng": -73.895 }, "geometry": { "type": "Point", "coordinates": [ -73.895, 40.76205 ] } },
{ "type": "Feature", "properties": { "start_station_id": "8277_03", "start_station_name": "Washington Ave & E 174 St", "start_lat": 40.843079, "start_lng": -73.900216 }, "geometry": { "type": "Point", "coordinates": [ -73.900216, 40.843079 ] } },
{ "type": "Feature", "properties": { "start_station_id": "5626_13", "start_station_name": "St Marks Pl & 1 Ave", "start_lat": 40.72779126, "start_lng": -73.98564945 }, "geometry": { "type": "Point", "coordinates": [ -73.98564945, 40.72779126 ] } },
{ "type": "Feature", "properties": { "start_station_id": "6581_14", "start_station_name": "24 St & 38 Ave", "start_lat": 40.756351, "start_lng": -73.936515 }, "geometry": { "type": "Point", "coordinates": [ -73.936515, 40.756351 ] } },
{ "type": "Feature", "properties": { "start_station_id": "8555_05", "start_station_name": "Loring Pl North & W 183 St", "start_lat": 40.8604244, "start_lng": -73.909335999700005 }, "geometry": { "type": "Point", "coordinates": [ -73.909335999700005, 40.8604244 ] } },
{ "type": "Feature", "properties": { "start_station_id": "4784_02", "start_station_name": "Greene Ave & Myrtle Ave", "start_lat": 40.698568, "start_lng": -73.918877 }, "geometry": { "type": "Point", "coordinates": [ -73.918877, 40.698568 ] } },
{ "type": "Feature", "properties": { "start_station_id": "3946_07", "start_station_name": "1 St & 6 Ave", "start_lat": 40.672784, "start_lng": -73.979826 }, "geometry": { "type": "Point", "coordinates": [ -73.979826, 40.672784 ] } },
{ "type": "Feature", "properties": { "start_station_id": "5944_01", "start_station_name": "Franklin St & Dupont St", "start_lat": 40.73564, "start_lng": -73.95866 }, "geometry": { "type": "Point", "coordinates": [ -73.95866, 40.73564 ] } },
{ "type": "Feature", "properties": { "start_station_id": "5137_11", "start_station_name": "Fulton St & William St", "start_lat": 40.709600893635368, "start_lng": -74.006550908088684 }, "geometry": { "type": "Point", "coordinates": [ -74.006550908088684, 40.709600893635368 ] } },
{ "type": "Feature", "properties": { "start_station_id": "3919_12", "start_station_name": "Eastern Pkwy & Franklin Ave (SW Corner)", "start_lat": 40.670529, "start_lng": -73.958222 }, "geometry": { "type": "Point", "coordinates": [ -73.958222, 40.670529 ] } },
{ "type": "Feature", "properties": { "start_station_id": "5414_06", "start_station_name": "Allen St & Rivington St", "start_lat": 40.72019576, "start_lng": -73.98997825 }, "geometry": { "type": "Point", "coordinates": [ -73.98997825, 40.72019576 ] } },
{ "type": "Feature", "properties": { "start_station_id": "6004_07", "start_station_name": "E 25 St & 1 Ave", "start_lat": 40.7381765, "start_lng": -73.97738662 }, "geometry": { "type": "Point", "coordinates": [ -73.97738662, 40.7381765 ] } },
{ "type": "Feature", "properties": { "start_station_id": "7541_01", "start_station_name": "W 95 St & Broadway", "start_lat": 40.7937704, "start_lng": -73.971888 }, "geometry": { "type": "Point", "coordinates": [ -73.971888, 40.7937704 ] } },
{ "type": "Feature", "properties": { "start_station_id": "5379_09", "start_station_name": "Berry St & N 8 St", "start_lat": 40.7190095, "start_lng": -73.95852515 }, "geometry": { "type": "Point", "coordinates": [ -73.95852515, 40.7190095 ] } },
{ "type": "Feature", "properties": { "start_station_id": "7627_10", "start_station_name": "Lenox Ave & W 115 St", "start_lat": 40.8011939, "start_lng": -73.9500739 }, "geometry": { "type": "Point", "coordinates": [ -73.9500739, 40.8011939 ] } },
{ "type": "Feature", "properties": { "start_station_id": "7092_06", "start_station_name": "E 77 St & 3 Ave", "start_lat": 40.77314236, "start_lng": -73.95856158 }, "geometry": { "type": "Point", "coordinates": [ -73.95856158, 40.77314236 ] } },
{ "type": "Feature", "properties": { "start_station_id": "7896_11", "start_station_name": "E 156 St & Brook Ave", "start_lat": 40.819823, "start_lng": -73.912411 }, "geometry": { "type": "Point", "coordinates": [ -73.912411, 40.819823 ] } },
{ "type": "Feature", "properties": { "start_station_id": "7084_12", "start_station_name": "E 81 St & York Ave", "start_lat": 40.7728384, "start_lng": -73.94989233 }, "geometry": { "type": "Point", "coordinates": [ -73.94989233, 40.7728384 ] } },
{ "type": "Feature", "properties": { "start_station_id": "8008_03", "start_station_name": "Prospect Ave & E 167 St", "start_lat": 40.826303, "start_lng": -73.898751 }, "geometry": { "type": "Point", "coordinates": [ -73.898751, 40.826303 ] } },
{ "type": "Feature", "properties": { "start_station_id": "3157_08", "start_station_name": "Turner Pl & Coney Island Ave", "start_lat": 40.64521, "start_lng": -73.97073 }, "geometry": { "type": "Point", "coordinates": [ -73.97073, 40.64521 ] } },
{ "type": "Feature", "properties": { "start_station_id": "6814_01", "start_station_name": "Motorgate", "start_lat": 40.7639089, "start_lng": -73.9477213 }, "geometry": { "type": "Point", "coordinates": [ -73.9477213, 40.7639089 ] } },
{ "type": "Feature", "properties": { "start_station_id": "3512_03", "start_station_name": "Winthrop St & Rogers Ave", "start_lat": 40.65686, "start_lng": -73.95331 }, "geometry": { "type": "Point", "coordinates": [ -73.95331, 40.65686 ] } },
{ "type": "Feature", "properties": { "start_station_id": "8081_01", "start_station_name": "Jerome Ave & Ogden Ave", "start_lat": 40.829797, "start_lng": -73.931015 }, "geometry": { "type": "Point", "coordinates": [ -73.931015, 40.829797 ] } },
{ "type": "Feature", "properties": { "start_station_id": "6422_09", "start_station_name": "E 44 St & 2 Ave", "start_lat": 40.751183874632773, "start_lng": -73.971387147903442 }, "geometry": { "type": "Point", "coordinates": [ -73.971387147903442, 40.751183874632773 ] } },
{ "type": "Feature", "properties": { "start_station_id": "7910_10", "start_station_name": "Lenox Ave & W 146 St", "start_lat": 40.821111, "start_lng": -73.935971 }, "geometry": { "type": "Point", "coordinates": [ -73.935971, 40.821111 ] } },
{ "type": "Feature", "properties": { "start_station_id": "6453_02", "start_station_name": "34 St & 38 Ave", "start_lat": 40.752443, "start_lng": -73.929737 }, "geometry": { "type": "Point", "coordinates": [ -73.929737, 40.752443 ] } },
{ "type": "Feature", "properties": { "start_station_id": "6167_03", "start_station_name": "51 St & Queens Blvd", "start_lat": 40.7429, "start_lng": -73.91395 }, "geometry": { "type": "Point", "coordinates": [ -73.91395, 40.7429 ] } },
{ "type": "Feature", "properties": { "start_station_id": "8362_09", "start_station_name": "Jerome Ave & W 177 St", "start_lat": 40.850121, "start_lng": -73.910765 }, "geometry": { "type": "Point", "coordinates": [ -73.910765, 40.850121 ] } },
{ "type": "Feature", "properties": { "start_station_id": "3887_03", "start_station_name": "Carroll St & Washington Ave", "start_lat": 40.6686744, "start_lng": -73.9618148 }, "geometry": { "type": "Point", "coordinates": [ -73.9618148, 40.6686744 ] } },
{ "type": "Feature", "properties": { "start_station_id": "8583_02", "start_station_name": "Sherman Ave & Thayer St", "start_lat": 40.863124, "start_lng": -73.926994 }, "geometry": { "type": "Point", "coordinates": [ -73.926994, 40.863124 ] } },
{ "type": "Feature", "properties": { "start_station_id": "5917_02", "start_station_name": "Bradley Ave & Greenpoint Ave", "start_lat": 40.735659148192291, "start_lng": -73.934788405895233 }, "geometry": { "type": "Point", "coordinates": [ -73.934788405895233, 40.735659148192291 ] } },
{ "type": "Feature", "properties": { "start_station_id": "3535_03", "start_station_name": "Winthrop St & Albany Ave", "start_lat": 40.6577, "start_lng": -73.9398 }, "geometry": { "type": "Point", "coordinates": [ -73.9398, 40.6577 ] } },
{ "type": "Feature", "properties": { "start_station_id": "4019_06", "start_station_name": "Carroll St & 6 Ave", "start_lat": 40.6740886, "start_lng": -73.9787282 }, "geometry": { "type": "Point", "coordinates": [ -73.9787282, 40.6740886 ] } },
{ "type": "Feature", "properties": { "start_station_id": "3842_08", "start_station_name": "10 St & 5 Ave", "start_lat": 40.6686273, "start_lng": -73.98700053 }, "geometry": { "type": "Point", "coordinates": [ -73.98700053, 40.6686273 ] } },
{ "type": "Feature", "properties": { "start_station_id": "4550_05", "start_station_name": "Central Ave & Covert St", "start_lat": 40.68929, "start_lng": -73.90951 }, "geometry": { "type": "Point", "coordinates": [ -73.90951, 40.68929 ] } },
{ "type": "Feature", "properties": { "start_station_id": "6224_03", "start_station_name": "W 22 St & 8 Ave", "start_lat": 40.74475148, "start_lng": -73.99915362 }, "geometry": { "type": "Point", "coordinates": [ -73.99915362, 40.74475148 ] } },
{ "type": "Feature", "properties": { "start_station_id": "6278_05", "start_station_name": "Davis St & Jackson Ave", "start_lat": 40.745627, "start_lng": -73.945661 }, "geometry": { "type": "Point", "coordinates": [ -73.945661, 40.745627 ] } },
{ "type": "Feature", "properties": { "start_station_id": "5755_15", "start_station_name": "Washington Pl & Greene St", "start_lat": 40.729806191804961, "start_lng": -73.995463809154614 }, "geometry": { "type": "Point", "coordinates": [ -73.995463809154614, 40.729806191804961 ] } },
{ "type": "Feature", "properties": { "start_station_id": "7524_09", "start_station_name": "West End Ave & W 94 St", "start_lat": 40.7941654, "start_lng": -73.974124 }, "geometry": { "type": "Point", "coordinates": [ -73.974124, 40.7941654 ] } },
{ "type": "Feature", "properties": { "start_station_id": "6989_07", "start_station_name": "31 St & Astoria Blvd", "start_lat": 40.7699176, "start_lng": -73.9184057 }, "geometry": { "type": "Point", "coordinates": [ -73.9184057, 40.7699176 ] } },
{ "type": "Feature", "properties": { "start_station_id": "8171_06", "start_station_name": "E 171 St & 3 Ave", "start_lat": 40.837119, "start_lng": -73.902185 }, "geometry": { "type": "Point", "coordinates": [ -73.902185, 40.837119 ] } },
{ "type": "Feature", "properties": { "start_station_id": "7925_04", "start_station_name": "W 133 St & 12 Ave", "start_lat": 40.820003, "start_lng": -73.959089 }, "geometry": { "type": "Point", "coordinates": [ -73.959089, 40.820003 ] } },
{ "type": "Feature", "properties": { "start_station_id": "5262_09", "start_station_name": "Madison St & Montgomery St", "start_lat": 40.713126, "start_lng": -73.984844 }, "geometry": { "type": "Point", "coordinates": [ -73.984844, 40.713126 ] } },
{ "type": "Feature", "properties": { "start_station_id": "6398_08", "start_station_name": "E 35 St & Madison Ave", "start_lat": 40.74848023448579, "start_lng": -73.982555866241455 }, "geometry": { "type": "Point", "coordinates": [ -73.982555866241455, 40.74848023448579 ] } },
{ "type": "Feature", "properties": { "start_station_id": "5854_10", "start_station_name": "Stuyvesant Walk & 1 Ave Loop", "start_lat": 40.732339777151054, "start_lng": -73.978983834385872 }, "geometry": { "type": "Point", "coordinates": [ -73.978983834385872, 40.732339777151054 ] } },
{ "type": "Feature", "properties": { "start_station_id": "7511_19", "start_station_name": "5 Ave & E 103 St", "start_lat": 40.7922553, "start_lng": -73.95249933 }, "geometry": { "type": "Point", "coordinates": [ -73.95249933, 40.7922553 ] } },
{ "type": "Feature", "properties": { "start_station_id": "4357_01", "start_station_name": "Moffat St & Bushwick", "start_lat": 40.68458, "start_lng": -73.90925 }, "geometry": { "type": "Point", "coordinates": [ -73.90925, 40.68458 ] } },
{ "type": "Feature", "properties": { "start_station_id": "3742_11", "start_station_name": "Carroll St & Rochester Ave", "start_lat": 40.66598, "start_lng": -73.9284 }, "geometry": { "type": "Point", "coordinates": [ -73.9284, 40.66598 ] } },
{ "type": "Feature", "properties": { "start_station_id": "5303_08", "start_station_name": "Canal St & Rutgers St", "start_lat": 40.71427487, "start_lng": -73.98990025000001 }, "geometry": { "type": "Point", "coordinates": [ -73.98990025, 40.71427487 ] } },
{ "type": "Feature", "properties": { "start_station_id": "4645_09", "start_station_name": "Hicks St & Montague St", "start_lat": 40.69512845, "start_lng": -73.99595065 }, "geometry": { "type": "Point", "coordinates": [ -73.99595065, 40.69512845 ] } },
{ "type": "Feature", "properties": { "start_station_id": "3448_02", "start_station_name": "Parkside Ave & Ocean Ave", "start_lat": 40.65485, "start_lng": -73.96217 }, "geometry": { "type": "Point", "coordinates": [ -73.96217, 40.65485 ] } },
{ "type": "Feature", "properties": { "start_station_id": "6650_07", "start_station_name": "E 55 St & 2 Ave", "start_lat": 40.75797322, "start_lng": -73.96603308 }, "geometry": { "type": "Point", "coordinates": [ -73.96603308, 40.75797322 ] } },
{ "type": "Feature", "properties": { "start_station_id": "6535_04", "start_station_name": "W 34 St & Hudson Blvd E", "start_lat": 40.755167190721387, "start_lng": -74.000599086284637 }, "geometry": { "type": "Point", "coordinates": [ -74.000599086284637, 40.755167190721387 ] } },
{ "type": "Feature", "properties": { "start_station_id": "5688_02", "start_station_name": "64 St & 53 Dr", "start_lat": 40.72897, "start_lng": -73.90115 }, "geometry": { "type": "Point", "coordinates": [ -73.90115, 40.72897 ] } },
{ "type": "Feature", "properties": { "start_station_id": "7170_04", "start_station_name": "35 St & 21 Ave", "start_lat": 40.776745, "start_lng": -73.906558 }, "geometry": { "type": "Point", "coordinates": [ -73.906558, 40.776745 ] } },
{ "type": "Feature", "properties": { "start_station_id": "5929_01", "start_station_name": "E 23 St & 1 Ave", "start_lat": 40.736502, "start_lng": -73.97809472 }, "geometry": { "type": "Point", "coordinates": [ -73.97809472, 40.736502 ] } },
{ "type": "Feature", "properties": { "start_station_id": "6847_05", "start_station_name": "7 Ave & W 55 St", "start_lat": 40.764126, "start_lng": -73.980973 }, "geometry": { "type": "Point", "coordinates": [ -73.980973, 40.764126 ] } },
{ "type": "Feature", "properties": { "start_station_id": "6943_07", "start_station_name": "25 Ave & 41 St", "start_lat": 40.767666, "start_lng": -73.910963 }, "geometry": { "type": "Point", "coordinates": [ -73.910963, 40.767666 ] } },
{ "type": "Feature", "properties": { "start_station_id": "6737_03", "start_station_name": "36 Ave & 10 St", "start_lat": 40.7614376, "start_lng": -73.9411265 }, "geometry": { "type": "Point", "coordinates": [ -73.9411265, 40.7614376 ] } },
{ "type": "Feature", "properties": { "start_station_id": "6230_02", "start_station_name": "1 Ave & E 38 St", "start_lat": 40.746202, "start_lng": -73.971822 }, "geometry": { "type": "Point", "coordinates": [ -73.971822, 40.746202 ] } },
{ "type": "Feature", "properties": { "start_station_id": "4987_06", "start_station_name": "White St & Moore St", "start_lat": 40.704508, "start_lng": -73.9351 }, "geometry": { "type": "Point", "coordinates": [ -73.9351, 40.704508 ] } },
{ "type": "Feature", "properties": { "start_station_id": "3090_06", "start_station_name": "Church Ave & McDonald Ave", "start_lat": 40.642809, "start_lng": -73.979239 }, "geometry": { "type": "Point", "coordinates": [ -73.979239, 40.642809 ] } },
{ "type": "Feature", "properties": { "start_station_id": "4724_03", "start_station_name": "Washington Ave & Park Ave", "start_lat": 40.69610226, "start_lng": -73.96751037 }, "geometry": { "type": "Point", "coordinates": [ -73.96751037, 40.69610226 ] } },
{ "type": "Feature", "properties": { "start_station_id": "5872_10", "start_station_name": "E 9 St & 5 Ave", "start_lat": 40.732758870450873, "start_lng": -73.995816707611084 }, "geometry": { "type": "Point", "coordinates": [ -73.995816707611084, 40.732758870450873 ] } },
{ "type": "Feature", "properties": { "start_station_id": "8123_06", "start_station_name": "Broadway & W 157 St", "start_lat": 40.834027401435279, "start_lng": -73.945108134426476 }, "geometry": { "type": "Point", "coordinates": [ -73.945108134426476, 40.834027401435279 ] } },
{ "type": "Feature", "properties": { "start_station_id": "7458_03", "start_station_name": "W 87 St & Amsterdam Ave", "start_lat": 40.78839, "start_lng": -73.9747 }, "geometry": { "type": "Point", "coordinates": [ -73.9747, 40.78839 ] } },
{ "type": "Feature", "properties": { "start_station_id": "4871_02", "start_station_name": "71 Ave & Myrtle Ave", "start_lat": 40.70067, "start_lng": -73.89907 }, "geometry": { "type": "Point", "coordinates": [ -73.89907, 40.70067 ] } },
{ "type": "Feature", "properties": { "start_station_id": "7640_04", "start_station_name": "E 118 St & Madison Ave", "start_lat": 40.8014866, "start_lng": -73.9442507 }, "geometry": { "type": "Point", "coordinates": [ -73.9442507, 40.8014866 ] } },
{ "type": "Feature", "properties": { "start_station_id": "8157_06", "start_station_name": "Broadway & W 160 St", "start_lat": 40.835775, "start_lng": -73.9434 }, "geometry": { "type": "Point", "coordinates": [ -73.9434, 40.835775 ] } },
{ "type": "Feature", "properties": { "start_station_id": "6996_01", "start_station_name": "30 Ave & 21 St", "start_lat": 40.7703743, "start_lng": -73.9286078 }, "geometry": { "type": "Point", "coordinates": [ -73.9286078, 40.7703743 ] } },
{ "type": "Feature", "properties": { "start_station_id": "4732_04", "start_station_name": "Carlton Ave & Park Ave", "start_lat": 40.69580705, "start_lng": -73.97355569 }, "geometry": { "type": "Point", "coordinates": [ -73.97355569, 40.69580705 ] } },
{ "type": "Feature", "properties": { "start_station_id": "8745_01", "start_station_name": "Marble Hill Ave & W 225 St", "start_lat": 40.87471, "start_lng": -73.91099 }, "geometry": { "type": "Point", "coordinates": [ -73.91099, 40.87471 ] } },
{ "type": "Feature", "properties": { "start_station_id": "6986_07", "start_station_name": "Columbus Ave & W 59 St", "start_lat": 40.76931, "start_lng": -73.98464 }, "geometry": { "type": "Point", "coordinates": [ -73.98464, 40.76931 ] } },
{ "type": "Feature", "properties": { "start_station_id": "5108_01", "start_station_name": "Scholes St & Manhattan Ave", "start_lat": 40.70870368, "start_lng": -73.9448625 }, "geometry": { "type": "Point", "coordinates": [ -73.9448625, 40.70870368 ] } },
{ "type": "Feature", "properties": { "start_station_id": "5450_01", "start_station_name": "N 10 St & Berry St", "start_lat": 40.720253, "start_lng": -73.957082 }, "geometry": { "type": "Point", "coordinates": [ -73.957082, 40.720253 ] } },
{ "type": "Feature", "properties": { "start_station_id": "5736_09", "start_station_name": "E 14 St & Ave B", "start_lat": 40.72938685, "start_lng": -73.97772429 }, "geometry": { "type": "Point", "coordinates": [ -73.97772429, 40.72938685 ] } },
{ "type": "Feature", "properties": { "start_station_id": "7913_15", "start_station_name": "Cauldwell Ave & E 158 St", "start_lat": 40.81989, "start_lng": -73.908351 }, "geometry": { "type": "Point", "coordinates": [ -73.908351, 40.81989 ] } },
{ "type": "Feature", "properties": { "start_station_id": "6306_06", "start_station_name": "W 22 St & 10 Ave", "start_lat": 40.74691959, "start_lng": -74.00451887 }, "geometry": { "type": "Point", "coordinates": [ -74.00451887, 40.74691959 ] } },
{ "type": "Feature", "properties": { "start_station_id": "3940_04", "start_station_name": "Sigourney St & Columbia St", "start_lat": 40.672672434109479, "start_lng": -74.008795246481895 }, "geometry": { "type": "Point", "coordinates": [ -74.008795246481895, 40.672672434109479 ] } },
{ "type": "Feature", "properties": { "start_station_id": "4368_05", "start_station_name": "Monroe St & Bedford Ave", "start_lat": 40.6851443, "start_lng": -73.95380904 }, "geometry": { "type": "Point", "coordinates": [ -73.95380904, 40.6851443 ] } },
{ "type": "Feature", "properties": { "start_station_id": "6373_07", "start_station_name": "W 30 St & 8 Ave", "start_lat": 40.749652684728467, "start_lng": -73.995207846164703 }, "geometry": { "type": "Point", "coordinates": [ -73.995207846164703, 40.749652684728467 ] } },
{ "type": "Feature", "properties": { "start_station_id": "7414_17", "start_station_name": "3 Ave & E 100 St", "start_lat": 40.7877214, "start_lng": -73.94728331 }, "geometry": { "type": "Point", "coordinates": [ -73.94728331, 40.7877214 ] } },
{ "type": "Feature", "properties": { "start_station_id": "7365_08", "start_station_name": "E 97 St & 3 Ave", "start_lat": 40.7859201, "start_lng": -73.94860294 }, "geometry": { "type": "Point", "coordinates": [ -73.94860294, 40.7859201 ] } },
{ "type": "Feature", "properties": { "start_station_id": "7119_04", "start_station_name": "24 Ave & 29 St", "start_lat": 40.7729, "start_lng": -73.916142 }, "geometry": { "type": "Point", "coordinates": [ -73.916142, 40.7729 ] } },
{ "type": "Feature", "properties": { "start_station_id": "4013_08", "start_station_name": "Columbia St & Lorraine St", "start_lat": 40.6747055, "start_lng": -74.0075572 }, "geometry": { "type": "Point", "coordinates": [ -74.0075572, 40.6747055 ] } },
{ "type": "Feature", "properties": { "start_station_id": "7712_06", "start_station_name": "Lincoln Ave & E 134 St", "start_lat": 40.808484, "start_lng": -73.928803 }, "geometry": { "type": "Point", "coordinates": [ -73.928803, 40.808484 ] } },
{ "type": "Feature", "properties": { "start_station_id": "8210_01", "start_station_name": "W 163 St & Riverside Dr", "start_lat": 40.839278, "start_lng": -73.945446 }, "geometry": { "type": "Point", "coordinates": [ -73.945446, 40.839278 ] } },
{ "type": "Feature", "properties": { "start_station_id": "6994_06", "start_station_name": "Ditmars Blvd & 79 St", "start_lat": 40.768728, "start_lng": -73.890745 }, "geometry": { "type": "Point", "coordinates": [ -73.890745, 40.768728 ] } },
{ "type": "Feature", "properties": { "start_station_id": "6028_01", "start_station_name": "57 Ave & 98 Pl", "start_lat": 40.73802, "start_lng": -73.86103 }, "geometry": { "type": "Point", "coordinates": [ -73.86103, 40.73802 ] } },
{ "type": "Feature", "properties": { "start_station_id": "7682_01", "start_station_name": "Park Ave & E 124 St", "start_lat": 40.8045555, "start_lng": -73.9396861 }, "geometry": { "type": "Point", "coordinates": [ -73.9396861, 40.8045555 ] } },
{ "type": "Feature", "properties": { "start_station_id": "5382_07", "start_station_name": "Forsyth St & Grand St", "start_lat": 40.717798177378349, "start_lng": -73.99316132068634 }, "geometry": { "type": "Point", "coordinates": [ -73.99316132068634, 40.717798177378349 ] } },
{ "type": "Feature", "properties": { "start_station_id": "6825_03", "start_station_name": "77 St & 24 Ave", "start_lat": 40.76428, "start_lng": -73.89156 }, "geometry": { "type": "Point", "coordinates": [ -73.89156, 40.76428 ] } },
{ "type": "Feature", "properties": { "start_station_id": "6474_11", "start_station_name": "E 40 St & 5 Ave", "start_lat": 40.752062307000003, "start_lng": -73.981632404300001 }, "geometry": { "type": "Point", "coordinates": [ -73.981632404300001, 40.752062307 ] } },
{ "type": "Feature", "properties": { "start_station_id": "4217_06", "start_station_name": "Degraw St & 3 Ave", "start_lat": 40.67977, "start_lng": -73.9847 }, "geometry": { "type": "Point", "coordinates": [ -73.9847, 40.67977 ] } },
{ "type": "Feature", "properties": { "start_station_id": "8013_07", "start_station_name": "St Nicholas Ave & W 150 St", "start_lat": 40.827212, "start_lng": -73.942722 }, "geometry": { "type": "Point", "coordinates": [ -73.942722, 40.827212 ] } },
{ "type": "Feature", "properties": { "start_station_id": "7967_04", "start_station_name": "River Ave & E 151 St", "start_lat": 40.822217, "start_lng": -73.928939 }, "geometry": { "type": "Point", "coordinates": [ -73.928939, 40.822217 ] } },
{ "type": "Feature", "properties": { "start_station_id": "7893_05", "start_station_name": "Adam Clayton Powell Blvd & W 141 St", "start_lat": 40.819241, "start_lng": -73.941057 }, "geometry": { "type": "Point", "coordinates": [ -73.941057, 40.819241 ] } },
{ "type": "Feature", "properties": { "start_station_id": "8048_01", "start_station_name": "E 167 St & Franklin Ave", "start_lat": 40.82895, "start_lng": -73.90521 }, "geometry": { "type": "Point", "coordinates": [ -73.90521, 40.82895 ] } },
{ "type": "Feature", "properties": { "start_station_id": "3544_02", "start_station_name": "Winthrop St & Nostrand Ave", "start_lat": 40.65707, "start_lng": -73.95005 }, "geometry": { "type": "Point", "coordinates": [ -73.95005, 40.65707 ] } },
{ "type": "Feature", "properties": { "start_station_id": "5997_10", "start_station_name": "W 12 St & Hudson St", "start_lat": 40.737529933010713, "start_lng": -74.005589336156845 }, "geometry": { "type": "Point", "coordinates": [ -74.005589336156845, 40.737529933010713 ] } },
{ "type": "Feature", "properties": { "start_station_id": "4614_04", "start_station_name": "Atlantic Ave & Furman St", "start_lat": 40.69165183, "start_lng": -73.9999786 }, "geometry": { "type": "Point", "coordinates": [ -73.9999786, 40.69165183 ] } },
{ "type": "Feature", "properties": { "start_station_id": "6608_09", "start_station_name": "E 54 St & 1 Ave", "start_lat": 40.756265, "start_lng": -73.964179 }, "geometry": { "type": "Point", "coordinates": [ -73.964179, 40.756265 ] } },
{ "type": "Feature", "properties": { "start_station_id": "5105_01", "start_station_name": "Liberty St & Broadway", "start_lat": 40.70905623, "start_lng": -74.01043382 }, "geometry": { "type": "Point", "coordinates": [ -74.01043382, 40.70905623 ] } },
{ "type": "Feature", "properties": { "start_station_id": "7314_03", "start_station_name": "21 St & 21 Ave", "start_lat": 40.782465, "start_lng": -73.914527 }, "geometry": { "type": "Point", "coordinates": [ -73.914527, 40.782465 ] } },
{ "type": "Feature", "properties": { "start_station_id": "6830_02", "start_station_name": "E 63 St & 3 Ave", "start_lat": 40.763954, "start_lng": -73.9646 }, "geometry": { "type": "Point", "coordinates": [ -73.9646, 40.763954 ] } },
{ "type": "Feature", "properties": { "start_station_id": "4680_05", "start_station_name": "Bushwick Ave & Dekalb Ave", "start_lat": 40.69502, "start_lng": -73.92825 }, "geometry": { "type": "Point", "coordinates": [ -73.92825, 40.69502 ] } },
{ "type": "Feature", "properties": { "start_station_id": "6432_10", "start_station_name": "E 41 St & Madison Ave (SE corner)", "start_lat": 40.752049, "start_lng": -73.979635 }, "geometry": { "type": "Point", "coordinates": [ -73.979635, 40.752049 ] } },
{ "type": "Feature", "properties": { "start_station_id": "5219_05", "start_station_name": "Manhattan Ave & Devoe St", "start_lat": 40.713532, "start_lng": -73.9459867 }, "geometry": { "type": "Point", "coordinates": [ -73.9459867, 40.713532 ] } },
{ "type": "Feature", "properties": { "start_station_id": "6809_07", "start_station_name": "W 56 St & 6 Ave", "start_lat": 40.76340613, "start_lng": -73.97722479 }, "geometry": { "type": "Point", "coordinates": [ -73.97722479, 40.76340613 ] } },
{ "type": "Feature", "properties": { "start_station_id": "5359_12", "start_station_name": "Duane St & Hudson St", "start_lat": 40.71703, "start_lng": -74.00925 }, "geometry": { "type": "Point", "coordinates": [ -74.00925, 40.71703 ] } },
{ "type": "Feature", "properties": { "start_station_id": "8399_06", "start_station_name": "Fort Washington Ave & W 183 St", "start_lat": 40.852252, "start_lng": -73.937854 }, "geometry": { "type": "Point", "coordinates": [ -73.937854, 40.852252 ] } },
{ "type": "Feature", "properties": { "start_station_id": "8511_08", "start_station_name": "Broadway & W 192 St", "start_lat": 40.857994, "start_lng": -73.932173 }, "geometry": { "type": "Point", "coordinates": [ -73.932173, 40.857994 ] } },
{ "type": "Feature", "properties": { "start_station_id": "5550_09", "start_station_name": "Leonard St & Nassau Ave", "start_lat": 40.723956784995401, "start_lng": -73.949843645095825 }, "geometry": { "type": "Point", "coordinates": [ -73.949843645095825, 40.723956784995401 ] } },
{ "type": "Feature", "properties": { "start_station_id": "6325_01", "start_station_name": "43 St & Skillman Ave", "start_lat": 40.74692675687384, "start_lng": -73.920824825763702 }, "geometry": { "type": "Point", "coordinates": [ -73.920824825763702, 40.74692675687384 ] } },
{ "type": "Feature", "properties": { "start_station_id": "6234_03", "start_station_name": "Woodside Ave & Roosevelt Ave", "start_lat": 40.74549, "start_lng": -73.90605 }, "geometry": { "type": "Point", "coordinates": [ -73.90605, 40.74549 ] } },
{ "type": "Feature", "properties": { "start_station_id": "6747_06", "start_station_name": "W 49 St & 8 Ave", "start_lat": 40.76227205, "start_lng": -73.98788205 }, "geometry": { "type": "Point", "coordinates": [ -73.98788205, 40.76227205 ] } },
{ "type": "Feature", "properties": { "start_station_id": "5114_08", "start_station_name": "South End Ave & Albany St", "start_lat": 40.709957, "start_lng": -74.016538 }, "geometry": { "type": "Point", "coordinates": [ -74.016538, 40.709957 ] } },
{ "type": "Feature", "properties": { "start_station_id": "8084_03", "start_station_name": "Fulton Ave & E 168 St", "start_lat": 40.830471, "start_lng": -73.904556 }, "geometry": { "type": "Point", "coordinates": [ -73.904556, 40.830471 ] } },
{ "type": "Feature", "properties": { "start_station_id": "7688_12", "start_station_name": "Frederick Douglass Blvd & W 117 St", "start_lat": 40.805159, "start_lng": -73.954692 }, "geometry": { "type": "Point", "coordinates": [ -73.954692, 40.805159 ] } },
{ "type": "Feature", "properties": { "start_station_id": "6551_11", "start_station_name": "E 43 St & Madison Ave", "start_lat": 40.753546818670742, "start_lng": -73.978965729475021 }, "geometry": { "type": "Point", "coordinates": [ -73.978965729475021, 40.753546818670742 ] } },
{ "type": "Feature", "properties": { "start_station_id": "5914_08", "start_station_name": "Greenwich Ave & Charles St", "start_lat": 40.735238, "start_lng": -74.000271 }, "geometry": { "type": "Point", "coordinates": [ -74.000271, 40.735238 ] } },
{ "type": "Feature", "properties": { "start_station_id": "4437_09", "start_station_name": "Nevins St & Schermerhorn St", "start_lat": 40.687372476507193, "start_lng": -73.981760591268539 }, "geometry": { "type": "Point", "coordinates": [ -73.981760591268539, 40.687372476507193 ] } },
{ "type": "Feature", "properties": { "start_station_id": "6432_11", "start_station_name": "E 40 St & Park Ave", "start_lat": 40.750756, "start_lng": -73.978326 }, "geometry": { "type": "Point", "coordinates": [ -73.978326, 40.750756 ] } },
{ "type": "Feature", "properties": { "start_station_id": "7288_04", "start_station_name": "Riverside Dr & W 72 St", "start_lat": 40.780577990103339, "start_lng": -73.985624313354492 }, "geometry": { "type": "Point", "coordinates": [ -73.985624313354492, 40.780577990103339 ] } },
{ "type": "Feature", "properties": { "start_station_id": "4016_03", "start_station_name": "Kingston Ave & Park Pl", "start_lat": 40.67308, "start_lng": -73.94191 }, "geometry": { "type": "Point", "coordinates": [ -73.94191, 40.67308 ] } },
{ "type": "Feature", "properties": { "start_station_id": "7386_10", "start_station_name": "2 Ave & E 99 St", "start_lat": 40.7862586, "start_lng": -73.94552579 }, "geometry": { "type": "Point", "coordinates": [ -73.94552579, 40.7862586 ] } },
{ "type": "Feature", "properties": { "start_station_id": "3166_03", "start_station_name": "Albemarle Rd & McDonald Ave", "start_lat": 40.645074, "start_lng": -73.979681 }, "geometry": { "type": "Point", "coordinates": [ -73.979681, 40.645074 ] } },
{ "type": "Feature", "properties": { "start_station_id": "7716_19", "start_station_name": "Lexington Ave & E 128 St", "start_lat": 40.806414, "start_lng": -73.936085 }, "geometry": { "type": "Point", "coordinates": [ -73.936085, 40.806414 ] } },
{ "type": "Feature", "properties": { "start_station_id": "6005_04", "start_station_name": "55 Ave & 90 St", "start_lat": 40.73676, "start_lng": -73.87318 }, "geometry": { "type": "Point", "coordinates": [ -73.87318, 40.73676 ] } },
{ "type": "Feature", "properties": { "start_station_id": "5532_01", "start_station_name": "Mercer St & Spring St", "start_lat": 40.72362738, "start_lng": -73.99949601 }, "geometry": { "type": "Point", "coordinates": [ -73.99949601, 40.72362738 ] } },
{ "type": "Feature", "properties": { "start_station_id": "4994_10", "start_station_name": "Onderdonk Ave & Gates Ave", "start_lat": 40.70413, "start_lng": -73.90737 }, "geometry": { "type": "Point", "coordinates": [ -73.90737, 40.70413 ] } },
{ "type": "Feature", "properties": { "start_station_id": "7178_02", "start_station_name": "23 Ave & 27 St", "start_lat": 40.776165, "start_lng": -73.9153175 }, "geometry": { "type": "Point", "coordinates": [ -73.9153175, 40.776165 ] } },
{ "type": "Feature", "properties": { "start_station_id": "8183_08", "start_station_name": "Nelson Ave & 167 St", "start_lat": 40.836705668628042, "start_lng": -73.926088660955429 }, "geometry": { "type": "Point", "coordinates": [ -73.926088660955429, 40.836705668628042 ] } },
{ "type": "Feature", "properties": { "start_station_id": "6140_05", "start_station_name": "W 21 St & 6 Ave", "start_lat": 40.74173969, "start_lng": -73.99415556 }, "geometry": { "type": "Point", "coordinates": [ -73.99415556, 40.74173969 ] } },
{ "type": "Feature", "properties": { "start_station_id": "6740_10", "start_station_name": "W 51 St & 6 Ave", "start_lat": 40.7606597, "start_lng": -73.98042047 }, "geometry": { "type": "Point", "coordinates": [ -73.98042047, 40.7606597 ] } },
{ "type": "Feature", "properties": { "start_station_id": "6667_04", "start_station_name": "W 47 St & 6 Ave", "start_lat": 40.758397, "start_lng": -73.98255 }, "geometry": { "type": "Point", "coordinates": [ -73.98255, 40.758397 ] } },
{ "type": "Feature", "properties": { "start_station_id": "6816_07", "start_station_name": "8 Ave & W 52 St", "start_lat": 40.76370739, "start_lng": -73.9851615 }, "geometry": { "type": "Point", "coordinates": [ -73.9851615, 40.76370739 ] } },
{ "type": "Feature", "properties": { "start_station_id": "6890_01", "start_station_name": "W 53 St & 10 Ave", "start_lat": 40.76669671, "start_lng": -73.99061728 }, "geometry": { "type": "Point", "coordinates": [ -73.99061728, 40.76669671 ] } },
{ "type": "Feature", "properties": { "start_station_id": "3246_06", "start_station_name": "New York Ave & Snyder Ave", "start_lat": 40.64868, "start_lng": -73.94635 }, "geometry": { "type": "Point", "coordinates": [ -73.94635, 40.64868 ] } },
{ "type": "Feature", "properties": { "start_station_id": "5746_02", "start_station_name": "E 10 St & 2 Ave", "start_lat": 40.729708056449937, "start_lng": -73.986597955226898 }, "geometry": { "type": "Point", "coordinates": [ -73.986597955226898, 40.729708056449937 ] } },
{ "type": "Feature", "properties": { "start_station_id": "6493_03", "start_station_name": "34 Ave & 71 St", "start_lat": 40.75257, "start_lng": -73.89538 }, "geometry": { "type": "Point", "coordinates": [ -73.89538, 40.75257 ] } },
{ "type": "Feature", "properties": { "start_station_id": "6380_10", "start_station_name": "39 Ave & 99 St", "start_lat": 40.74962, "start_lng": -73.86677 }, "geometry": { "type": "Point", "coordinates": [ -73.86677, 40.74962 ] } },